stop_id,stop_name,stop_lat,stop_lon
7612,Davenport Hotel Merrion Street,53.3413467794909,-6.250529480367451
2,"Rotunda, Parnell Square West",53.3522443611383,-6.26372321891887
3,"Rotunda, Granby Place",53.35230855143251,-6.26381074216825
4,"Rotunda, Rotunda Hospital",53.352574513185,-6.26417548603797
6,"Rotunda, Saint Martin's Chapel",53.3527493357046,-6.264453803964339
7,"Rotunda, Rotunda Hospital",53.352840910578394,-6.26457026121749
8,"Rotunda, Parnell Square West",53.3532722714822,-6.265183676574
10,"Rotunda, Parnell Square West",53.3533921036473,-6.265389123899539
11,"Phibsborough, Upper Dorset St (St.Joseph's Parade)",53.3569583030018,-6.264628310669281
12,"Phibsborough, Upper Dorset St (St.Joseph's Parade)",53.356804940545,-6.2645894713639105
14,"Phibsborough, Lower Dorset Street",53.358531237875795,-6.26277650570871
15,"Ballybough, Lower Dorset Street",53.360088584135895,-6.261090470313599
16,"Cabra, John Paul Park",53.36639155714111,-6.3056141835273705
17,"Drumcondra, Outside Train Station",53.36291707327501,-6.2584359173339905
18,"Drumcondra, Lower Drumcondra Road",53.365855925916605,-6.25595682067835
19,"Drumcondra, Lower Drumcondra Road",53.3671437314429,-6.25551350128863
21,"Drumcondra (Dublin), Saint Patrick's College",53.3701011992947,-6.25431059904442
22,"Drumcondra (Dublin), Home Farm Road (Achill Road)",53.3735036097406,-6.25280375269006
23,"Drumcondra (Dublin), Ferguson Road",53.374228280079095,-6.256261004167
24,"Drumcondra (Dublin), Home Farm Road",53.375133158884104,-6.26037234812319
25,"Glasnevin, Rathlin Road",53.375899466147395,-6.26361773641709
27,"Glasnevin, Ballymun Road (Griffith Avenue)",53.3794389600107,-6.266585261260031
28,"Wadelai, Glasnevin Tennis Club",53.381578637628,-6.26600227077738
29,"Whitehall (Dublin City), Ballymun Road",53.383488252945696,-6.26566910125417
30,"Cabra, Pope John Paul II Park",53.3703319001931,-6.304601169229129
31,"Wadelai, Maolbuille Road",53.3860332259144,-6.2688580772749996
32,"Wadelai, Saint Pappin's Road",53.386195568073795,-6.271377201041401
33,"Wadelai, Glasnevin Drive",53.3887179243058,-6.27177114122451
35,"Wadelai, Dean Swift Road",53.386206787101294,-6.270910692540999
36,"Wadelai, Saint Pappin's Road",53.386126850410996,-6.267877069783389
37,"Whitehall (Dublin City), DCU Ballymun Road",53.385346401194,-6.264886981317941
38,"Whitehall (Dublin City), Ballymun Road",53.3822365941636,-6.265509521205059
39,"Glasnevin, Ballymun Road (Griffith Avenue)",53.3804141869323,-6.265658759065889
40,"Glasnevin, Mobhi Road",53.37666076545071,-6.26466896852795
41,"Drumcondra (Dublin), Home Farm Road",53.375559268325794,-6.26185800624669
42,"Drumcondra (Dublin), Ferguson Road",53.3746502734575,-6.25746118972134
43,"Drumcondra (Dublin), Home Farm Road (Achill Road)",53.37386122022679,-6.253901310433919
44,"Drumcondra (Dublin), Homefarm Road",53.3730174091204,-6.25213230324296
45,"Drumcondra, Upper Drumcondra Road",53.369990110962895,-6.254089717169911
46,"Drumcondra (Dublin), Botanic Avenue",53.3671507382056,-6.25537796909961
47,"Drumcondra, Near Train Station",53.3639161189927,-6.25729825652802
48,"Summerhill (Dublin City), Lower Drumcondra Road",53.362329033001004,-6.25879046525832
49,"Ballybough, Lower Dorset Street",53.360031842720794,-6.26089745848732
51,Upper Dorset St (Temple Street),53.3579898458103,-6.26324925121845
52,"Phibsborough, Upper Dorset St (St.Joseph's Parade)",53.3567946474934,-6.264499747697281
53,"Phibsborough, North Circular Road (Lower Dorset Street)",53.3600144884223,-6.26279128910753
54,"Phibsborough, North Circular Road (Mater Hospital)",53.360153709098505,-6.265565220090599
55,"Phibsborough, Mater Hospital Mortuary",53.3604116029234,-6.26846957982236
56,"Phibsborough, Cabra Road (North Circular Road)",53.3607597246041,-6.2763736549141
57,"Phibsborough, Cabra Road (North Circular Road)",53.360816224291895,-6.276551674843311
58,"Cabra East, Cabra Road (Charleville Road)",53.36094624589129,-6.28120420246723
59,"Cabra East, Cabra Road (near Annamoe Terrace)",53.361018010196396,-6.28494256312827
60,"Cabra East, Cabra Road (Quarry Road)",53.361279219648196,-6.28936450005445
63,"Cabra East, Faussagh Avenue",53.36679243729299,-6.29275010805854
64,"Cabra, Faussagh Avenue (Church)",53.36708858206671,-6.295232782203361
65,"Cabra, Faussagh Avenue (Dingle Road)",53.3672546442387,-6.29805127641299
66,"Cabra, Faussagh Avenue (Dingle Road)",53.3672749883703,-6.30074034554992
68,"Cabra, Ventry Drive",53.369077508046,-6.304245234666411
69,"Cabra, Ventry Park Estate",53.371392564093505,-6.30334171689525
71,"Cabra, Pope John Paul II Park",53.3702576893289,-6.304438805303509
72,"Cabra, Ventry Drive",53.368969926025,-6.30426453600163
73,"Cabra, Faussagh Avenue (Dingle Road)",53.3673915527258,-6.300720678655701
74,"Cabra, Faussagh Avenue (Church)",53.36720023856339,-6.2954988140077806
75,"Cabra East, Faussagh Avenue",53.3665472298946,-6.29131731936794
77,"Cabra East, Cabra Road (Quarry Road)",53.361309181902506,-6.28957365234688
78,"Cabra East, Cabra Road (near Annamoe Terrace)",53.3611492151906,-6.28406583527474
79,"Cabra East, Cabra Road (Charleville Road)",53.3610212509762,-6.28079550562153
80,"Phibsborough, Cabra Road (North Circular Road)",53.360862963273,-6.27605396152962
81,"Phibsborough, North Circular Road (Phibsborough Road)",53.3608757479059,-6.27196662691607
82,"Phibsborough, Royal Canal Bank",53.3607977959156,-6.27154908016382
83,"Phibsborough, North Circular Road (Mater Hospital)",53.36027924982229,-6.265545096162749
84,"Phibsborough, North Circular Road (Leo Street)",53.360162561596205,-6.26370178059102
85,"Drumcondra (Dublin), Homefarm Road",53.3736615235483,-6.25192557043456
86,"Whitehall (Dublin City), Garda Station",53.3760502204589,-6.25116639066169
87,"Whitehall (Dublin City), Sherkin Gardens",53.3767517255719,-6.2548802899246
88,"Whitehall (Dublin City), Walnut Rise",53.3772872552991,-6.257699228645611
90,Ballymun Road (St.Pappin's Road),53.386385531673795,-6.26526567275522
91,Ballymun Road (Glasnevin Avenue),53.38842788964829,-6.265408142076829
92,"Wadelai, Ballymun Library",53.3898373340512,-6.2646742403610505
93,"Wadelai, Ballymun Road (Opp Shanlis Road)",53.392301467749704,-6.26415297561013
94,"Ballymun, Civic Centre",53.396034762411496,-6.26437695995448
102,"Ballymun, Balbutcher Lane (Árd Na Meala)",53.3977730701661,-6.26771985697013
104,"Poppintree, Balbutcher Lane (Carrig Road)",53.3996843452926,-6.2768158490776305
105,"Ballymun, Balbutcher Lane (Cranogue Road)",53.4029374784001,-6.28176785224465
107,"Ballymun, Balbutcher Lane (Cranogue Road)",53.4020356254331,-6.27968361815462
110,"Ballymun, Balbutcher Lane (Árd Na Meala)",53.3979399488216,-6.268690557216241
112,"Ballymun, Civic Centre",53.3961544015462,-6.2639510403018
113,"Ballymun, Comprehensive School",53.392267962926205,-6.26370325464247
114,"Wadelai, Ballymun Road (Shanliss Road)",53.39133332205439,-6.263711229252371
115,"Whitehall (Dublin City), Ballymun Road (Albert College Drive)",53.3878836841267,-6.26506943988923
116,"Whitehall (Dublin City), Griffith Lawns",53.3776934606437,-6.25966673989336
117,"Whitehall (Dublin City), Walnut Rise",53.3773659067251,-6.25754570845526
118,"Whitehall (Dublin City), Sherkin Gardens",53.376643001690795,-6.253592098576809
119,"Drumcondra, Upper Drumcondra Road (Griffith Avenue)",53.3751904807235,-6.25076574528234
126,"Ballymun, Nursing Home",53.3990954666854,-6.264086960560451
127,"Ballymun, Silver Swan Nursing Home",53.3991075304805,-6.26368042823971
128,"Wadelai, Glasnevin Avenue (Ballymun Road)",53.389314748294794,-6.26582313262043
129,"Wadelai, Glasnevin Ave (Glasnevin Dr)",53.389890315447396,-6.27142293606878
130,"Glasnevin North, Glasnevin Park",53.3900920127596,-6.27418126942506
131,"Glasnevin North, Glasnevin Avenue (Beneavin Drive)",53.3903858902625,-6.27834923697209
132,"Glasnevin North, Beneavin Park",53.39048394646029,-6.28266046316236
133,"Glasnevin North, Grove Park Road",53.3907969275881,-6.28630150947292
134,"Glasnevin North, Sycamore Road (Willow Park Crescent)",53.39309459132029,-6.286073865435609
136,"Finglas, McKee Road",53.3943802013895,-6.2898565965000905
137,"Finglas, Clancy Avenue",53.392316719630394,-6.292630794814321
138,"Finglas, Saint Canice's School",53.3899219036799,-6.292350769525489
139,"Glasnevin North, Glasnevin Avenue",53.390601462424094,-6.286459717488719
140,"Glasnevin North, Beneavin Park",53.390659494831496,-6.2823677201561
141,"Glasnevin North, Glasnevin Avenue (Beneavin Drive)",53.3904450850916,-6.27809124468715
142,"Glasnevin North, Glasnevin Park",53.39019082334129,-6.27417727164297
143,"Wadelai, Glasnevin Ave (Glasnevin Dr)",53.389876708405,-6.269243369980201
146,"Glasnevin, Na Fianna Football Ground",53.37537139790529,-6.265006968547361
147,"Glasnevin, Dean Swift Bridge",53.3724802262386,-6.26583086212365
148,"Glasnevin, Mobhi Road (Botanic Road)",53.3706701663468,-6.26806850705825
149,"Glasnevin, Mobhi Road (Mobhí Drive)",53.37313858725571,-6.26598446613778
150,"Glasnevin, Na Fianna Football Ground",53.3756588461862,-6.264995283028231
151,"Glasnevin, Botanic Gardens",53.371955260019206,-6.26929382771155
153,"Glasnevin, Meteorological Office",53.375732766346395,-6.270087554537059
154,"Glasnevin, Saint Brigid's School",53.3772589962512,-6.275557037186509
155,"Glasnevin, Old Finglas Road",53.3778742492869,-6.279575527175719
156,"Glasnevin, Tolka Road Estate #1",53.378623390086005,-6.2816647390949205
157,"Glasnevin, Griffith Road",53.3804116224166,-6.281637825177651
158,"Glasnevin, Griffith Road",53.381348935624,-6.28368956273439
159,"Glasnevin, Griffith Parade",53.382783719157295,-6.282835112461081
164,"Glasnevin North, Beneavin Road",53.3884303639456,-6.28048792293046
165,"Beneavin Road, Junction Beneavin Park",53.3890348746719,-6.28377124881097
166,"Glasnevin North, Beneavin School",53.3895835973683,-6.28630514857365
167,"Glasnevin North, Beneavin Road (Ballygall Road East)",53.3901866021356,-6.28698758531706
168,"Beneavin Road, Junction Beneavin Park",53.38925996688721,-6.28442373469443
169,"Glasnevin North, Beneavin Road",53.3884339346694,-6.2801119099585305
173,"Glasnevin, Glasnamana Place",53.3821216122982,-6.28054674839469
174,"Glasnevin, Tolka Road Estate",53.380680354947394,-6.2809505621077095
175,"Glasnevin, Tolka Road Estate #1",53.378424253731005,-6.28156753895514
176,"Glasnevin, Old Finglas Road",53.3780320419735,-6.27929860607809
177,"Glasnevin, Ballygall Road East",53.3804683765673,-6.27622403515383
178,"Glasnevin, West Park Drive",53.381890263169296,-6.27634698261825
179,"Glasnevin, Ballygall Road East",53.380303431276204,-6.2760052198013305
181,"Glasnevin, Old Finglas Road (Cremore Ave)",53.3771498433764,-6.27422370686192
182,"Glasnevin, Meteorological Office",53.3756401078363,-6.2698959167255595
183,"Glasnevin, Botanic Gardens",53.372315929121505,-6.26875318486038
184,"Glasnevin, Botanic Road,Cliftonville",53.3697036819826,-6.26897935449929
185,"Glasnevin, Botanic Road",53.3681009359861,-6.27002113927784
186,"Glasnevin, Prospect Road",53.365355342635,-6.27158997755118
187,"Phibsborough, Phibsboro Road",53.362734252360404,-6.272447365338321
188,"Phibsborough, Phibsboro Road (NCR)",53.3601206877553,-6.27258314915011
189,"Phibsborough, Broadstone",53.35716743948829,-6.2734688155533895
190,"Phibsborough, Broadstone Depot",53.35512573041449,-6.273371074005739
191,"Phibsborough, Youth Club",53.35507685452539,-6.26937692305375
192,"Phibsborough, Mountjoy Street",53.356397211235894,-6.2680764696391496
193,"Finglas, McKee Road",53.391196305978795,-6.294104034873941
194,"Phibsborough, Saint Dominic's Youth Club",53.35504064955179,-6.26997931103775
195,"Phibsborough, Constitution Hill",53.355011777876705,-6.27357097973096
196,"Phibsborough, Broadstone Depot",53.35688389929071,-6.27375070406954
197,Phibsboro Road (Monck Place),53.358952631612,-6.27323137351173
198,"Phibsborough, Phibsboro Shopping Centre",53.3616253828786,-6.27283781041661
199,"Phibsborough, Phibsboro Road",53.363621811498206,-6.2722912462251905
200,"Glasnevin, Prospect Way",53.36742269263121,-6.271596443938019
201,"Glasnevin, Botanic Road",53.36829109866,-6.27011862691081
202,"Glasnevin, Fairfield Road",53.3700800875498,-6.2689039775337605
203,"Drumcondra, Whitehall Garda Station",53.3763927937136,-6.25001002810673
204,"Whitehall, Highfield Hospital",53.379588357566995,-6.2466621927376105
205,"Whitehall, Swords Road",53.3814128035703,-6.24542973242025
206,"Whitehall, Collins Avenue West ( Larkhill Road)",53.3835460890329,-6.24747670792428
207,"Whitehall, Larkhill Road",53.38482163073629,-6.249874782768019
208,"Whitehall, Glendun Road",53.3866539303158,-6.24795040815756
209,"Whitehall, Glentow Estate",53.38727111052901,-6.24591044728043
210,"Whitehall, Crestfield Road",53.387594081272795,-6.24831772849056
211,"Whitehall (Dublin City), Saint Aidan's School",53.3842808561631,-6.249160330594179
212,"Whitehall, Collins Avenue West ( Larkhill Road)",53.383195635127706,-6.24625839753322
213,"Whitehall, Iveragh Road",53.381531050665,-6.244913768139419
214,"Whitehall, Highfield Hospital",53.379408483572995,-6.246654551825559
215,"Whitehall, Collins Avenue West",53.381872287004796,-6.2424494292295005
216,"Beaumont (Dublin City), Yellow Road",53.3823308174836,-6.23819131969338
217,"Whitehall, Beaumont Road",53.384323621843,-6.2368011222044695
218,"Beaumont, Shantalla Road (Beaumont Road)",53.3855709097602,-6.23362253145054
220,"Whitehall, Swords Road",53.387940539655396,-6.24498084117383
233,"Beaumont, Shantalla Road (Beaumont Road)",53.3858213105789,-6.233536994159019
234,"Beaumont, Beaumont Grove",53.3849504827242,-6.234820842718039
235,"Whitehall, Beaumont Road Collinswood Estate",53.3832966131819,-6.2372494565105905
236,"Beaumont (Dublin City), Yellow Road",53.382024743095705,-6.238158860037861
237,"Whitehall, Collins Avenue",53.3820319328819,-6.24352519975875
242,"Beaumont, Beaumont Road",53.385654898567104,-6.23201042765
243,"Beaumont, Beaumont Road",53.3857800608389,-6.229539674546991
244,"Beaumont, Elmount Rise",53.38499821368529,-6.22349851566417
245,"Beaumont, Whitethorn Crescent",53.38447224442,-6.21956660604612
246,"Artane, Beaumont Recreational Centre",53.3851504766469,-6.216230877169959
247,"Artane, Ardlea Road (near A1 pub)",53.3869761610588,-6.21450075590277
248,"Artane, Maryfield Drive",53.3855645601725,-6.21446963135785
249,"Artane, Beaumont Recreational Centre",53.384933549178804,-6.2161497449639596
250,"Beaumont, Whitethorn Crescent",53.3844194499785,-6.2202453161013604
251,"Beaumont, Skelly's Lane (Elmount Rise)",53.3848596736854,-6.22324871269866
252,"Beaumont, Skelly's Lane (Opp Beaumont Crescent)",53.385568015837094,-6.22796991791541
253,"Kilmore, Beaumont Hospital",53.3899459507358,-6.22439004685405
254,"Kilmore, Beaumont Hospital",53.390265298443296,-6.2241061136683795
255,"Beaumont, Coolgreena Road",53.385593880418995,-6.231531872417429
261,"Dublin, Parnell Square North",53.3540562845333,-6.26285336122227
262,"Dublin, Garden of Remembrance",53.3539469610394,-6.262752648921079
263,"Dublin, Garden of Remembrance",53.3537456234947,-6.2625054539801
264,"Dublin, Gaelscoil Cholaiste Mhuire",53.353535302671204,-6.26225862681692
265,"Dublin, Gate Theatre",53.3533615685145,-6.26205538070461
270,"Dublin, Upper O'Connell Street",53.3506233915308,-6.26042429163433
271,"Dublin, Lower O'Connell Street",53.348596362581794,-6.259485419972121
272,"Dublin, Upper O'Connell Street",53.3514644798917,-6.26078060573293
273,"Dublin City South, O'Connell Bridge",53.347247415952395,-6.258819401539579
274,"Dublin, Millennium Spire",53.3503490838222,-6.26072086862175
276,"Ashtown, River Road",53.377402200924905,-6.331796583128559
277,"Dublin, Citizens Information Service",53.35082232581801,-6.260506319786919
278,"Dublin, Cathal Brugha Street",53.3513531741087,-6.26116068128307
279,"Dublin, Millennium Spire",53.35013174640929,-6.26060954701665
281,"Rotunda, Dublin Bus Head Office",53.35090995484239,-6.260968420751469
284,"Ashtown, Rathbourne Avenue",53.3772826239301,-6.32838928381528
286,"Dublin, Cathal Brugha Street",53.3520003824172,-6.260548478066941
288,"Dublin, Irish Life Mall",53.349197279872506,-6.2550898269972
289,"Dublin, Irish Life Mall",53.349035182347095,-6.25629812341943
291,"Dublin, National Lottery Head Quarters",53.3489359441274,-6.2568879893772005
292,"Dublin, Irish Life Mall",53.3489273892572,-6.2563025232072995
293,"Dublin, National Lottery Head Quarters",53.3488581695532,-6.25710145511176
297,"Dublin, Eden Quay",53.3481897170169,-6.25687337517716
298,"Dublin, Liberty Hall",53.3482087686015,-6.256331854401799
299,"Dublin, Liberty Hall",53.34823132876121,-6.25603052041444
300,"Dublin, Liberty Hall",53.348209193839,-6.2557460316124
301,"Dublin, Marlborough Street",53.347950033409795,-6.25707842203133
302,"Dublin, Eden Quay",53.3480983541306,-6.25677195870995
303,"Dublin, Eden Quay",53.347757898922204,-6.2580776128694104
307,"Warrenmount, O'Donovan Road",53.334577089465895,-6.280087464165209
308,"Warrenmount, Oscar Square",53.3367711889546,-6.2795336569240705
309,"Warrenmount, Ardee Street",53.337849891796395,-6.2789195881599404
312,"Temple Bar, Wellington Quay",53.3454764728264,-6.2662061554843
313,"Dublin, Lower Liffey Street",53.34690690074449,-6.261972497710721
315,"Dublin, Bachelors Walk",53.3469263969899,-6.26207684589386
317,"Dublin City South, Westmoreland Street",53.3462448501457,-6.25910057954255
318,Westmoreland Street (O'Connell Bridge),53.34630772957029,-6.25909801737036
319,"Dublin City South, Westmoreland Street",53.34596901234671,-6.25929205738211
320,"Dublin City South, Westmoreland Street",53.3455466028366,-6.25929424743901
322,"Ballymun, Gulliver's Retail Park",53.4042549924644,-6.26535084532186
325,"Temple Bar, Aston Quay",53.34673320029779,-6.25992180730209
326,"Temple Bar, Aston Quay",53.3465796093979,-6.26048380541737
328,"Temple Bar, Aston Quay",53.3464264533881,-6.26107582175627
329,"Temple Bar, Aston Quay",53.346318864461296,-6.26171103970584
333,"Dublin City South, O'Connell Bridge House",53.346648199236895,-6.258408239591611
334,"Dublin City South, D'Olier Street",53.346581156205,-6.25812559112216
335,"Dublin City South, D'Olier House",53.3462619374052,-6.25780816657112
336,"Dublin City South, Ashfield House",53.3462516394294,-6.25771846673947
340,"Dublin City South, Pearse Street Garda Station",53.3460128066369,-6.25613609916844
342,Trinity College,53.34556411831739,-6.25680026075817
345,"Trinity College, Garda Station",53.345475815469,-6.2562931940713
346,"Trinity College, Garda Station",53.3455062736618,-6.256532266224
350,"Dublin City South, Lower Sandwith Street",53.34563194158171,-6.24976824959424
351,"Pearse Station, Pearse Street",53.3433724681717,-6.24524997856558
352,"Grand Canal Dock, Pearse Square",53.342989145803095,-6.2424121399899
353,"Grand Canal Dock, Pearse Street",53.342615846380795,-6.23964903171023
354,"Grand Canal Dock, Barrow Street",53.3422200812999,-6.2365865256356905
355,"Grand Canal Dock, Ringsend Bus Depot",53.341761451106606,-6.23292593610588
356,"Ringsend, Bridge Street",53.3419030234416,-6.226717443134639
357,"Irishtown, Irishtown Road",53.33917104396689,-6.223121474898571
371,"Irishtown (Dublin City), Irishtown Gospel Hall",53.3386127807367,-6.22305458253422
372,"Sandymount, Star Of The Sea Church",53.33542347697951,-6.21953823532786
373,"Sandymount, Farney Park",53.33427533127129,-6.2178892725965405
374,"Sandymount, Sandymount Road",53.3331662348684,-6.21644898414059
375,"Sandymount, Seafort Avenue",53.3339984812299,-6.214402146218751
376,"Sandymount, Strand Road (Lea Road)",53.33071252622501,-6.2092542646162
377,"Sandymount, Strand Road (Gilford Road)",53.32872892923061,-6.20884189534073
378,"Sandymount, Sandymount Tower",53.3256502919022,-6.20733447201422
380,"Sandymount, Saint John's Road East",53.3247260855137,-6.20923477230439
381,"Sandymount, Saint John's Church",53.32420586828171,-6.21230406086853
382,"Sandymount, Seamount House",53.3250976571988,-6.20764288276518
383,"Sandymount, Strand Road (Gilford Road)",53.328541421988604,-6.20892482063583
384,"Sandymount, Strand Road (Lea Road)",53.331633952391996,-6.2101616048599695
385,"Sandymount, Newgrove Avenue",53.332351023118,-6.21122768794003
387,"Sandymount, Sandymount Road",53.3324995101993,-6.215741057677491
388,"Irishtown, Sandymount Road",53.334508861965105,-6.218480172552121
389,"Irishtown, Sandymount Road",53.33529008179621,-6.21963388936862
390,"Sandymount, Tritonville Road",53.3377022219536,-6.22226650556187
391,"Ringsend, Irishtown Road",53.3399922179904,-6.22394334704278
392,"Ringsend, Saint Patrick's Church",53.3417336311665,-6.22741532105921
393,"Sandymount, Cranfield Place",53.33690388771689,-6.22237479685263
395,"Ringsend, Ringsend Road",53.341940053565104,-6.235276454416339
396,"Grand Canal Dock, Pearse Street",53.342461590373794,-6.23955025594793
397,"Grand Canal Dock, Saint Andrew's Resource Centre",53.3427855554404,-6.242015007307611
398,"Pearse Station, Pearse Street",53.3432949350359,-6.245478446867889
399,"Pearse Station, Pearse Street",53.3438646181754,-6.248158500364139
400,"Trinity College, Shaw Street",53.344751161599206,-6.25283825801258
404,"Trinity College, Nassau St. (Opp. Frederick St)",53.3427183259381,-6.2564207419068705
405,"Trinity College, South Frederick's Street",53.342481689181604,-6.2556043726643
406,"Trinity College, Northern Ireland Tourist Board",53.3426164442785,-6.25621463756987
407,Custom House Quay,53.3483795866679,-6.253876505995111
408,Merrion Square North,53.3409707826238,-6.25001923957642
409,"Merrion Square, Holles Street",53.3401367313169,-6.24769559556976
410,"Dublin City South, Lower Mount Street",53.3388134508634,-6.24389039032328
411,"Dublin City South, Lower Mount Street",53.3381171192211,-6.241771553501401
412,"Dublin City South, Northumberland Road",53.3352555102366,-6.2372793190562
413,"Dublin City South, Northumberland Road",53.334094193305,-6.236546394051531
414,"Ballsbridge, Northumberland Road",53.331521686467,-6.234595488264179
415,"Ballsbridge, Elgin Road",53.3303378154068,-6.23294774966437
416,"Ballsbridge, Merrion Road RDS",53.3286399201175,-6.22936956914703
417,"Ballsbridge, Merrion Road (Sydenham Road)",53.327699585650606,-6.225970420488549
418,"Ballsbridge, British Embassy",53.3257198105114,-6.22339529752618
419,"Ballsbridge, Merrion Road",53.3239951058417,-6.22044950312351
420,"Ballsbridge, Merrion Road",53.3219108012885,-6.217503921727491
421,"Merrion, Merrion Road (Ailesbury Road)",53.32000517942139,-6.21449112042242
422,"Merrion, Saint Vincent's Hospital",53.318064191863,-6.2103242807078205
423,"Merrion, Herbert Avenue",53.31714850413421,-6.207405658281179
424,"Merrion, Merrion Gates",53.315394380198796,-6.203726866213441
476,"Merrion, Merrion Gates",53.315751526370605,-6.204762522732639
477,"Merrion, Merrion Road (Estate Ave)",53.31686305468221,-6.20695232009333
478,"Merrion, Saint Vincent's Hospital",53.3181142989155,-6.211267825308879
479,"Merrion, Merrion Shopping Centre",53.319143967621,-6.2134012866997095
480,"Merrion, Merrion Road (Ailesbury Road)",53.3208499799872,-6.2162872053677
481,"Ballsbridge, Merlyn Road",53.3223446397546,-6.21826644297958
482,"Ballsbridge, Merrion Road",53.3247277780849,-6.22196529496771
483,"Ballsbridge, Merrion Road",53.3259975565216,-6.223939234450589
485,"Ballsbridge, Merrion Road RDS",53.3283521017921,-6.22875091277159
486,"Ballsbridge, Merrion Road RDS",53.32839879740789,-6.228869088131599
487,"Ballsbridge, American Embassy",53.330800948997,-6.233874524232401
488,"Dublin City South, Lansdowne Park",53.3330985546294,-6.23607694701108
489,"Dublin City South, Northumberland Road",53.3349420031452,-6.2373523126562
490,"Dublin City South, Northumberland Road",53.336626630316296,-6.238829547719799
491,"Dublin City South, Lower Mount Street",53.3378140535091,-6.241333510886741
492,"Dublin City South, Lower Mount Street",53.338584685142,-6.24361446215909
493,"Merrion Square, Holles Street",53.3398534163774,-6.24737682273898
494,Clare Street,53.3413358933187,-6.251626258050161
495,"Pearse Station, Outside Train Station",53.3435913198129,-6.249746705169031
496,Busáras,53.3494802300675,-6.25231438637282
497,Outside Connolly Station,53.3505260753991,-6.250694343223819
499,"Ballybough, Summerhill Parade",53.357504675521604,-6.2491164469991896
500,"North Strand, Ballybough Road (Foster Terrace)",53.3590360763177,-6.24628915528184
501,"North Strand, Ballybough Road (Clonliffe Road)",53.360705684688206,-6.24369637425144
509,"North Strand, Ballybough Road (Clonliffe Road)",53.3606013493589,-6.24332503950194
510,"North Strand, Ballybough Road (Foster Terrace)",53.359172736644,-6.245802758049309
511,"Ballybough, Summerhill Parade",53.3575155897132,-6.24863523337024
513,"Summerhill, Summerhill Road",53.3552575357682,-6.254015974458519
515,"Connolly Station, Amiens Street",53.3536082775389,-6.248194548003419
516,"North Strand, Marino College of Further Education",53.35572883289579,-6.245703839530099
518,"Ballybough, North Strand Road",53.3589392077014,-6.24092940256284
519,"North Strand, Annesley Bridge",53.3603387601165,-6.239534528658969
521,"Ballybough, Fairview Park",53.361637047048205,-6.23797846068553
522,"Fairview, Fairview Footbridge",53.3632889490287,-6.23541597469797
523,"Fairview, Marino College Fairview",53.3642686011137,-6.23176916143433
525,"Clontarf, Howth Road",53.364960873510896,-6.226330911163171
526,"Clontarf, Copeland Grove",53.36686957214789,-6.2211122785803195
527,"Clontarf, Howth Road (St.Lawrence Road)",53.3680198762275,-6.21267888054445
528,"Clontarf, Castle Grove",53.3692640806971,-6.20993674463178
529,"Killester, Howth Road (Collins Avenue)",53.3705942520024,-6.20753649495154
530,"Killester, Howth Road (Castle Ave)",53.371224532344506,-6.20402332968282
531,"Killester, Howth Road (Furry Park Road)",53.3732170200372,-6.20144457927604
532,"Raheny, Howth Road (Brookwood Avenue)",53.375718621976006,-6.19389907203514
533,"Raheny, Howth Road (Ennafort Park Estate)",53.3775832778026,-6.187056139524421
534,"Raheny, Garda Retirement Home",53.3786553262457,-6.181899870786509
535,"Raheny, Raheny Shopping Centre",53.380231731956606,-6.1774132643626
536,"Raheny, Raheny Village",53.3804237567076,-6.17351172677606
537,"Raheny, Avondale Park",53.3799012003047,-6.168152634977259
538,"Raheny, Howth Road (Maywood Road)",53.3801380645862,-6.164264183188549
539,"Raheny, Howth Road (The Old Sheiling)",53.3806736618095,-6.15935564153758
540,"Raheny, Howth Road (Greendale Road)",53.381336276367904,-6.1551179435333
541,Howth Road (Blackbanks),53.3818727077497,-6.15202806844666
542,"Bayside, Dublin Road (Kilbarrack Road)",53.3836619200447,-6.14626794992908
591,"Bayside, Dublin Road (Kilbarrack Road)",53.3843156154467,-6.144375376760429
592,Dublin Road (James Larkin Road),53.382717376036204,-6.148533881521209
593,Howth Road (Blackbanks),53.3819577847972,-6.15113744949444
594,"Raheny, Howth Road (Greendale Road)",53.38116336555671,-6.15556136213264
595,"Raheny, Berehaven Place",53.38059995044121,-6.15923856299832
596,"Raheny, Howth Road (Maywood Road)",53.380252843323795,-6.161793972076911
597,"Raheny, Howth Road (Maywood Road)",53.380019012908704,-6.164705234935139
598,"Raheny, Howth Road (Avondale Park)",53.37983534289129,-6.16913254174957
599,"Raheny, Raheny Library",53.3803353283041,-6.17301945078285
600,"Raheny, Howth Road",53.380240549861796,-6.1762253505970595
601,"Raheny, Howth Road (Cill Eanna Estate)",53.3792502012084,-6.179649825114111
602,"Raheny, Cill Eanna Estate (Opposite Ennafort Park)",53.37814252479011,-6.183049071009901
603,"Raheny, Ennafort Park Estate",53.377382159008704,-6.18742542966496
604,"Raheny, All Saints Road",53.376354644009396,-6.19079085973447
605,"Raheny, Howth Road (Brookwood Avenue)",53.375650516243404,-6.19355625373816
606,"Killester, Saint Bridget's Church",53.37470897840079,-6.19786466034239
607,"Killester, Howth Road (Furry Park Road)",53.3724998515806,-6.2021661486438795
608,"Killester, Howth Road (Castle Ave)",53.3711273073464,-6.20413262235646
609,"Clontarf, Castle Grove",53.369837544077704,-6.208620256489691
610,"Clontarf, Ashbrook Estate",53.368362301306604,-6.211537455274381
611,"Clontarf, Howth Road (Hollybrook Park)",53.3667557998784,-6.21890801167765
612,"Clontarf, Howth Road",53.3658698711413,-6.22399402584046
613,"Clontarf, Howth Road",53.3646174709891,-6.22681099838462
614,"Fairview, Pedestrian Footbridge",53.363692787366396,-6.23355106826557
615,"Ballybough, Fairview Park",53.361906416454104,-6.237351298930349
616,"North Strand, Annesley Bridge",53.3599170181452,-6.239581965127161
617,"Ballybough, North Strand Road",53.357894521070996,-6.24200909637447
618,"North Strand, Newcomen Bridge",53.3561117066802,-6.2448467990968295
619,"Connolly Station, Amiens Street",53.3540446250405,-6.24730533351984
620,"Dublin, Talbot Street (opp Bank of Ireland)",53.351193477577404,-6.25146316296385
621,"Dublin, Talbot Street",53.3505177759152,-6.25626764847564
624,"Harmonstown, Harmonstown Road (Ribh Road)",53.380185307130006,-6.18912523804651
625,"Harmonstown, Lein Park",53.3817875653826,-6.186321297283009
626,"Harmonstown, Edenmore Green",53.384494518415096,-6.18405641915907
627,"Edenmore, Edenmore Grove",53.385407017017,-6.18200303261637
628,"Edenmore, Edenmore Grove",53.3869549963204,-6.18390657920362
629,"Edenmore, Edenmore Park",53.386527969522895,-6.185969424714941
630,"Edenmore, Springdale Road",53.387243995851094,-6.18932175227289
633,"Edenmore, Tonlegee Drive",53.3896443404821,-6.189355180444809
634,"Edenmore, Tonlegee Avenue",53.390275196652496,-6.18414110921006
635,"Edenmore, Glenwood Road (Tonlegee Rd)",53.389022536065795,-6.18392380127648
636,"Edenmore, Tonlegee Drive",53.388858659516494,-6.18674234809099
637,"Edenmore, Springdale Road",53.3877918262024,-6.18988485424521
638,"Edenmore, Springdale Road",53.386762321324206,-6.18837999607754
639,"Edenmore, Edenmore Park",53.3863330185323,-6.18674446075596
640,"Edenmore, Edenmore Grove",53.386705385199605,-6.18345113980026
641,"Edenmore, Edenmore Grove",53.3858263828452,-6.182391081461951
642,"Harmonstown, Edenmore Green",53.384731848304995,-6.1831142289761605
643,"Edenmore, Saint Joseph's Hospital",53.3835661358812,-6.183885468341099
644,"Harmonstown, Lein Park",53.3823625142317,-6.185710576646169
645,"Harmonstown, Harmonstown Road (Ribh Road)",53.3801688019244,-6.18862988048628
649,"Raheny, All Saints Road",53.3762836659106,-6.189666567087441
650,All Saints Road (Sybill Hill Ave),53.375402853733796,-6.18552548323385
651,"Raheny, All Saints Road (Near Tennis Courts Car Park)",53.3754794507715,-6.1799309090613
653,"Raheny, Main Street Raheny",53.3794630466244,-6.175341638962211
654,"Raheny, Watermill Road",53.379210075798,-6.17702098083078
655,"Raheny, Watermill Drive",53.377738671384705,-6.17543040232881
656,"Raheny, Watermill Drive",53.376470200796206,-6.17770919175966
657,"Raheny, All Saints Park",53.3755453978778,-6.1789511170447895
658,"Raheny, All Saints Road (Waterfall Road)",53.374980048481504,-6.18313861991686
659,All Saints Road (Sybill Hill Ave),53.3752374406804,-6.185878213489901
664,"Donnycarney, Donnycarney Church",53.3747192481248,-6.21950756213934
665,"Donnycarney, Malahide Road Clontarf Golf Club",53.37246631779329,-6.222126461226231
666,"Clontarf, Mount Temple School",53.37023312412129,-6.224263347846541
667,"Marino, Malahide Road (Griffith Avenue)",53.367981645465896,-6.22698684651141
668,"Marino, East South B. Sub Station",53.3645749808589,-6.22939731689476
669,"Marino, Malahide Road (Crescent Place)",53.3663170047508,-6.22867890531785
670,"Marino, Malahide Road (Griffith Avenue)",53.368956114808505,-6.226029663892111
671,"Clontarf, Mount Temple School",53.370716841968495,-6.22415305315518
672,"Donnycarney, junction Donnycarney Road",53.3734663500286,-6.22107782075337
674,"Donnycarney, Collins Avenue East",53.3746860705057,-6.21608209235965
675,Amiens Street Junction Upper Sheriff Str,53.352858137716204,-6.2485257594770705
709,"Killester, Saint Bridget's Church",53.3750380598504,-6.19703913201504
722,"Raheny, Outside Train Station",53.38111369965079,-6.17572202474466
723,"Edenmore, East South B. Sub Station",53.3841517880035,-6.17572742205128
724,"Edenmore, Grange Woodbine Community Centre",53.3869554629401,-6.174510011409071
725,"Edenmore, Raheny Road",53.3895723720634,-6.1704888112675595
726,"Donaghmede, Millbrook Avenue",53.391748351421796,-6.167613780669661
727,"Donaghmede, Donaghies Estate",53.3937048518631,-6.16683802482072
728,"Donaghmede, Church Of The Holy Trinity",53.3953162106826,-6.163490594723769
729,"Donaghmede, Scoil Bride",53.3965584587976,-6.16244459517592
730,"Donaghmede, Hole in the Wall Road",53.39816669772839,-6.16181886879421
738,"Donaghmede, Grangemore Road",53.397600355030406,-6.16181320548643
739,"Donaghmede, Donaghmede Shopping Centre",53.3951450858597,-6.16346788917263
740,"Donaghmede, Donaghies Estate",53.3931412776214,-6.16701261526443
741,"Donaghmede, Millbrook Avenue",53.3919077252208,-6.167456571190519
742,"Raheny, De La Salle School",53.38982341384521,-6.16986158795113
743,"Raheny, Woodbine Park",53.38802486380239,-6.17273523820562
744,"Raheny, Raheny Road",53.3852706961919,-6.17483767880914
745,"Raheny, Outside Train Station",53.381343565605,-6.1754716767302895
746,Kildare Street (Natural History Museum),53.3402246009318,-6.2555313125422405
747,"Dublin City South, Archbishop Statue",53.3399308030255,-6.25572351873597
748,"Stephen's Green, Huguenot Cemetery",53.338509534394596,-6.255030666007181
749,"Dublin City South, Lower Pembroke Street",53.3376207009507,-6.250802147184781
750,"Dublin City South, Lower Baggot Street",53.3365710800751,-6.24848750327114
751,"Dublin City South, Lower Baggot Street",53.335320547924795,-6.24657163552756
752,"Dublin City South, Upper Baggot Street",53.333671654232795,-6.24446202003114
753,"Dublin City South, Saint Martins House",53.3324978619639,-6.24348919684675
754,"Dublin City South, Waterloo Road (Burlington Road)",53.3307837823714,-6.24428032727381
755,"Dublin City South, Waterloo Road (Wellington Lane)",53.328828045695495,-6.245141367987701
756,"Donnybrook, Bloomfield Avenue",53.3263997617783,-6.2425987467031
757,"Donnybrook, Morehampton Road",53.3240813371564,-6.23958650985938
758,"Donnybrook, Morehampton Road",53.32268694295279,-6.23767738043155
759,"Donnybrook, Old Wesley Rugby Football Club",53.3203488508422,-6.23334551683733
760,"Donnybrook, Church of the Sacred Heart",53.3183301872864,-6.2305619559303995
761,"Donnybrook, R.T.E. Television Studios",53.3161004007969,-6.227487213707009
762,RTE,53.3145170648479,-6.22437094406494
763,"Donnybrook, Belfield Court",53.3123201447816,-6.22110031908025
769,"Donnybrook, Belfield Court",53.311901092315,-6.22132785711803
770,N11 Opp. R.T.E.,53.31463618755979,-6.22573181130972
771,"Donnybrook, Teresian School",53.315880069241295,-6.227781522428041
772,"Donnybrook, Donnybrook Bus Garage",53.318999272378704,-6.23143489969715
773,"Donnybrook, Donnybrook Road",53.3199163484772,-6.233273319310809
774,"Donnybrook, Donnybrook Garda Station",53.32161212356171,-6.2354999964197395
775,"Donnybrook, Morehampton Road",53.3234897098036,-6.239085447216129
776,"Donnybrook, Morehampton Road",53.3254792402812,-6.24173582106076
777,"Donnybrook, Morehampton Road",53.3269721601091,-6.243626143648711
779,"Dublin City South, Waterloo Road (Wellington Lane)",53.328688736329205,-6.245447362648539
780,"Dublin City South, Waterloo Road (Burlington Road)",53.3310197625714,-6.244435796214991
781,"Dublin City South, Saint Martins House",53.332636358802205,-6.24373876417184
782,"Dublin City South, Upper Baggot Street",53.3335838144569,-6.24460076754333
783,"Dublin City South, Lower Baggot Street",53.335308537374296,-6.24697756396985
784,"Dublin City South, Lower Baggot Street",53.3364567280898,-6.248657371465139
785,"Dublin City South, Lower Pembroke Street",53.3371058976017,-6.25185937348663
786,"Dublin City South, Lower Leeson Street",53.3351467148271,-6.25617403577258
790,St Stephens Green North,53.33930685909229,-6.257926526166379
791,"Stephen's Green, Stephens Court",53.339115152290894,-6.257724096642179
792,"Dublin City South, Dawson Street",53.340600380900796,-6.25848953123279
793,"Dublin City South, Dawson Street",53.3401437926548,-6.25861326308715
795,"Phibsborough, Eccles Street",53.3587400432977,-6.26972427815325
796,"Phibsborough, Mater Hospital, Berkeley Road",53.3600182144434,-6.26985278581192
797,"Phibsborough, Post Office",53.3607260028205,-6.27466216472105
798,"Cabra East, North Circular Road (Rathdown Road)",53.359476636142304,-6.2796407009401705
799,"Cabra East, North Circular Road (Charleville Road)",53.3588687100101,-6.28173855104546
800,"Cabra East, Grangegorman Hospital",53.35806515152311,-6.2846104289481
801,"Cabra East, North Circular Road",53.3574704998113,-6.287639082435301
802,"Arbour Hill, Drumalee Estate",53.3564983224928,-6.291298722790331
803,"Cabra East, North Circular Road (Oxmanstown Road)",53.3547130307104,-6.29404421386
804,"Cabra East, North Circular Road (O'Devaney Gardens)",53.3536849851855,-6.29569268053352
805,"Arbour Hill, Military Hospital",53.3516034652015,-6.29469416391995
806,"Arbour Hill, Montpelier Gardens",53.3503103783227,-6.29540672124856
807,"Arbour Hill, Phoenix Park Gate",53.3515565121154,-6.29770038608451
808,"Cabra East, North Circular Road (O'Devaney Gardens)",53.35399466951961,-6.295349826494871
809,"Cabra East, North Circular Road (Oxmanstown Road)",53.355260739805004,-6.29337634624951
810,"Cabra East, North Circular Road",53.3570998601571,-6.28999764127673
811,"Cabra East, North Circular Road",53.357672149897205,-6.287285447217441
812,"Cabra East, Grangegorman Hospital",53.358266360652294,-6.284226743738
813,"Cabra East, North Circular Road (Charleville Road)",53.359190046097204,-6.28095937438322
814,"Phibsborough, North Circular Road (Cabra Road)",53.360540015137,-6.276097049299951
817,"Phibsborough, Mater Hospital, Berkeley Road",53.3596462179679,-6.269612438447701
818,"Phibsborough, O'Connell Avenue",53.35848112080811,-6.2692239448313405
819,"Phibsborough, Blessington Court",53.356304020848896,-6.265991985697731
820,"Cabra East, Carnlough Road (Cabra Road)",53.361967795144,-6.29351397958427
821,"Cabra East, Drumcliffe Estate",53.36455190350429,-6.29383143635442
822,"Cabra East, Carnlough Road",53.3671206776262,-6.29182032110431
823,"Cabra East, Carnlough Road (Bannow Road)",53.3682351539493,-6.29118965054413
824,"Cabra, Carnlough Road (Kilkieran Road)",53.3697478518935,-6.2932630949611905
825,"Cabra, Carnlough Road",53.370429439932394,-6.2969328259137205
826,"Cabra, Near Train Station",53.371217854378,-6.30116950755918
827,"Cabra, Ventry Park Estate",53.3713061509822,-6.30358561039431
828,"Cabra, Near Train Station",53.3710448241108,-6.29974867792342
829,"Cabra, Carnlough Road",53.3703968945592,-6.29591219523143
830,"Cabra East, Carnlough Road (Bannow Road)",53.369624371656705,-6.29217098015254
831,"Cabra East, Carnlough Road",53.367661969108,-6.29133281290905
832,"Cabra East, Drumcliffe Estate",53.3636294546039,-6.2940636348917405
833,"Cabra East, Carnlough Road (Cabra Road)",53.3617761473196,-6.29331128383968
834,"Drumcondra (Dublin), Binns Bridge",53.3619793509141,-6.260697936235089
835,"Drumcondra (Dublin), Lower Saint Brigid's Road",53.362560328603,-6.2629431496645305
836,"Drumcondra (Dublin), Claude Road",53.36329150180529,-6.26624916236246
837,"Drumcondra (Dublin), David Road",53.36370153236629,-6.267870355344111
838,"Drumcondra (Dublin), Whitworth Road (Prospect Rd)",53.364319396116294,-6.27018939098142
839,"Drumcondra (Dublin), David Road",53.3637449204179,-6.267763412540011
840,"Drumcondra (Dublin), Whitworth Road",53.3632433495627,-6.26540966607288
841,"Drumcondra (Dublin), Whitworth Road",53.3621221995284,-6.26063201536313
842,"Stephen's Green, Saint Stephen's Green",53.3372519750062,-6.25631338920499
843,"Stephen's Green, Saint Stephen's Green",53.3370024314213,-6.2564587206996
844,"Stephen's Green, Loreto Convent",53.33763187205879,-6.255862398487491
845,"Dublin City South, Leeson Street",53.335453445464296,-6.256251618265411
846,"Dublin City South, Lower Leeson Street",53.3334537329999,-6.2541109084785695
847,"Dublin City South, Upper Leeson Street (Mespil Road)",53.331601445162704,-6.252219619651769
848,"Dublin City South, Sussex Road",53.329727990815705,-6.2488879983548795
849,"Ranelagh, Appian Way",53.327809106243706,-6.247975703802531
850,"Ranelagh, Chelmsford Road",53.326129773473205,-6.2511371784693095
851,"Ranelagh, Chelmsford Road",53.325004409794,-6.2534651091997695
852,"Ranelagh, Ranelagh Village",53.324429266492096,-6.25285808537085
853,"Ranelagh, Sandford Road",53.3225927700056,-6.24836957707265
854,"Milltown (Dublin City), Sandford Road (Larch Grove)",53.32163167127789,-6.24657756321518
855,"Milltown (Dublin City), Sandford Road (Belmont Road)",53.319302298455604,-6.24281536591722
856,"Milltown (Dublin City), Clonskeagh Road (Eglington Road)",53.317655111815206,-6.24082667970819
857,"Milltown (Dublin City), Clonskeagh Hospital",53.316567380096394,-6.23837983033545
858,"Milltown (Dublin City), Beech Hill Estate",53.3140944728122,-6.2383015721788
881,"Milltown (Dublin City), Beech Hill Estate",53.31456356841021,-6.238417331566991
882,"Milltown (Dublin City), Clonskeagh Hospital",53.316704656536295,-6.239154676493059
883,"Clonskeagh, Clonskea Road (Milltown Road)",53.31768515732921,-6.24103558331433
884,"Clonskeagh, Milltown Park",53.319996991214104,-6.244212844427941
885,"Milltown (Dublin City), Sandford Road (Larch Grove)",53.3212589673318,-6.246292621230411
886,"Ranelagh, Sandford Road",53.322597396222704,-6.24868463259583
887,"Ranelagh, Ranelagh",53.3242077457399,-6.25246180680163
089,"Whitehall (Dublin City), Griffith Avenue (Lambay Road)",53.3780271154986,-6.261592149887591
893,"Rathmines, Cowper Road",53.3160725163363,-6.2591581800642
894,"Rathmines, Cowper Road",53.3151931375336,-6.26419198051229
895,"Rathgar, Upper Rathmines Road",53.3139322642579,-6.26401801846629
896,"Rathgar, Palmerston Park",53.313372149630204,-6.2613542468480805
897,"Rathgar, Palmerston Lane",53.314299620262005,-6.25838984601839
903,"Ranelagh, Chelmsford Road",53.3255834292541,-6.252495656737441
904,"Ranelagh, Appian Way",53.3274174409115,-6.248847515740781
906,Leeson Street Upper,53.32881076597221,-6.24763437727541
907,"Ranelagh, Saint John's Ambulance Head Quarters",53.3297193588566,-6.250750108604669
908,"Dublin City South, Upper Leeson Street (Mespil Road)",53.3311542855348,-6.25237303421842
909,"Dublin City South, Lower Leeson Street",53.333147659918005,-6.254078363855291
956,"Kilbarrack, Naomh Barrog GAA Club",53.38983180211039,-6.1529011457283795
958,"Donaghmede, Saint Donagh's Estate",53.390952693261994,-6.16379876732403
959,"Donaghmede, Kilbarrack Road",53.3910106372241,-6.166983892113779
960,"Edenmore, Tonlegee Road",53.391176274861095,-6.17192361400687
961,"Edenmore, Saint Monica's Youth Centre",53.3910945956223,-6.17657322269722
962,"Edenmore, Tonlegee Road",53.3908317729634,-6.18291454790952
963,"Edenmore, Tonlegee Road #1",53.3905565532176,-6.186685205719909
964,"Edenmore, Smurfits",53.3901106957452,-6.19225228317503
965,"Coolock, Tonlegee Road",53.388890083913296,-6.19652888129107
966,"Coolock, Saint Brendan's Terrace",53.3912605396212,-6.2029241829820005
967,"Coolock, Woodville",53.3922920610154,-6.2063691423389695
968,"Coolock, Woodville Park",53.39380454177879,-6.21072636064262
969,"Coolock, Northside Shopping Centre",53.3956824564158,-6.215489638220401
972,"Kilmore (Dublin City), Woodlawn Estate",53.396996042884105,-6.23492379932213
979,"Glasnevin, Finglas Credit Union",53.389953808589404,-6.29710063600173
980,"Finglas, Mellowes Crescent",53.3898772869677,-6.30308771071007
981,"Finglas, Mellowes Road",53.389827770418904,-6.30656281119104
983,"Finglas South, Mellowes Road",53.3901416743196,-6.310955692220629
984,"Finglas, Mellowes Road",53.389911388025894,-6.3067549495513795
985,"Finglas, Mellowes Crescent",53.389978648871605,-6.3038955821799805
987,"Finglas, Finglas Village (Seamus Ennis Road)",53.390282164876204,-6.29932779808204
988,"Finglas, Seamus Ennis Rd (Ballygall Rd W)",53.389897932164295,-6.295704589194
993,"Kilmore, Auldan Grange Estate",53.397702596997,-6.22922517485579
997,"Coolock, Oscar Traynor Road",53.3941495045613,-6.21155395670719
998,"Coolock, Armstrong Walk",53.393574767844896,-6.20978868590317
999,"Coolock, Jennings Funeral Home",53.3922410515283,-6.2059653079864905
1000,"Coolock, Coolock Garda Stn",53.39098307668,-6.20180818492748
1001,"Coolock, Coolock Village",53.390081121155205,-6.199214991230309
1002,"Coolock, Tonlegee Road",53.38921950302011,-6.1951317121114196
1003,"Edenmore, Tonlegee Road #3",53.390325342846204,-6.19099522846236
1004,"Edenmore, Tonlegee Road #1",53.390718998951996,-6.18613701145048
1005,"Edenmore, Tonlegee Road",53.3910057583144,-6.18194483849172
1006,"Edenmore, Saint Monica's Youth Centre",53.39117035605129,-6.17682559538368
1007,"Edenmore, Tonlegee Road #4",53.391220257387296,-6.17244798884621
1008,"Donaghmede, Kilbarrack Road",53.3911267142898,-6.16693379574114
1009,"Donaghmede, Saint Donagh's Estate",53.391089075657504,-6.16448455072243
1012,"Kilbarrick, Kilbarrack Parade",53.390295155195595,-6.15264050908237
1013,"Dublin City South, Saint Stephen's Green House",53.3354815055116,-6.25755688072017
1014,"Dublin City South, Earlsfort Terrace",53.335676496237,-6.2573687364943895
1015,"Dublin City South, Earlsfort Terrace",53.33273035341679,-6.25996635506886
1016,"Portobello, Richmond Street Sth (Lennox Street)",53.331036174383,-6.2645997550192405
1017,"Rathmines, Grove Park",53.329299651159296,-6.26447506533583
1018,"Ranelagh, Rathmines Road Lower (Richmond Hill)",53.327570985712605,-6.2648905467881795
1019,"Rathmines, Military Road",53.3265475976213,-6.264977117746789
1020,"Rathmines, Rathmines Town Centre",53.325138383795995,-6.26510936447965
1021,"Rathmines, Rathmines Avenue",53.3213802466074,-6.2656521259785904
1022,"Rathmines, Summerville Park",53.319521743825504,-6.264556674161629
1023,"Rathmines, Maxwell Road",53.3170461890185,-6.26491228899521
1024,"Rathmines, Frankfort Avenue",53.315852343074894,-6.265020756111469
1025,"Rathgar, Dartry Road (Sunbury Gardens)",53.31159986545939,-6.262476823046369
1026,"Rathgar, Dartry Road",53.309105770785706,-6.26032708219741
1027,"Dartry, South Hill",53.308737940033105,-6.257910941128171
1028,"Dartry, Lower Churchtown Road",53.3084991105589,-6.2557146811215
1062,"Dartry, Lower Churchtown Road",53.3082596341802,-6.255319265868899
1063,"Dartry, South Hill",53.308572081539495,-6.258863118230781
1064,"Rathgar, Dartry Road",53.3094291383453,-6.260929220589
1065,"Rathgar, Dartry Road (Sunbury Gardens)",53.311829024900206,-6.26278268022841
1066,"Rathgar, Upper Rathmines Road",53.313753480582896,-6.26408530832738
1067,"Rathmines, Upper Rathmines Road",53.317050771228196,-6.265227306441981
1068,"Rathmines, Rathmines Avenue",53.320558444719,-6.26538523670884
1069,"Rathmines, Lower Rathmines Road",53.323285263611496,-6.2656198954127404
1070,"Rathmines, Lower Rathmines Road",53.3249801839816,-6.26535598291685
1071,"Ranelagh, Rathmines Road Lower (Richmond Hill)",53.327218036165895,-6.26472471169493
1072,"Portobello, Richmond Street Sth (Lennox Street)",53.331123601216404,-6.264431044943381
1074,"Kelly's Corner, Charlotte Way",53.3337954595226,-6.263977200724661
1076,"Rathmines, Lower Rathmines Road",53.3231305919114,-6.26549106260883
1077,"Rathmines, Rathmines Garda Station",53.321601899251604,-6.2666789145496296
1078,"Rathmines, Rathgar Road",53.3194127648938,-6.26880907035696
1079,"Rathgar, Spar Rathgar Road",53.3166546241928,-6.27075187426881
1080,"Rathgar, Rathgar Road, Auburn Villas",53.31490919871779,-6.27187306349646
1081,"Rathgar, Rathgar Road (Highfield Road)",53.31264970285629,-6.2734951734877304
1082,"Rathgar, Terenure Road East",53.3116759487029,-6.27577063203852
1083,"Terenure, Brighton Road",53.311145561259,-6.27825325307526
1085,"Terenure, Terenure Road East",53.310099485224804,-6.2823773139730505
1086,"Terenure, Terenure Road West",53.3096695705149,-6.285606083004629
1087,"Terenure, Garda Station",53.3103351137685,-6.28939126007519
1088,"Kimmage, Terenure Road West",53.3109735887837,-6.29317763255717
1089,"Terenure, Lavarna Grove",53.3116555855459,-6.297502660951481
1090,"Kimmage, Kimmage Road West (Fortfield Road)",53.3121038877658,-6.300576440603809
1091,"Kimmage, Whitehall Road (Kimmage Road West)",53.3124406081629,-6.30529057738079
1092,"Kimmage, Whitehall Road",53.3107438359013,-6.309229696890349
1093,"Kimmage, Whitehall Road",53.3099785512678,-6.311676084697241
1113,"Walkinstown, Glendale Park",53.3090231356625,-6.31530040274471
1114,"Kimmage, Manor Grove",53.310343734942506,-6.31080626120506
1115,"Kimmage, Whitehall Gardens",53.311598433175,-6.3073799923059
1117,"Terenure, Lavarna Grove",53.31189064985829,-6.29822868798702
1118,"Kimmage, Terenure Road West",53.3113669927789,-6.29491782827779
1119,"Kimmage, Terenure Road West",53.3109356902408,-6.292413763447519
1120,"Terenure, Garda Station",53.3101981052294,-6.28798605930363
1121,"Terenure, Terenure Cross Library",53.309001597636794,-6.28540774793682
1122,"Terenure, Templeogue Road",53.307219634285794,-6.288375352529041
1123,"Terenure, Lakeland's Park",53.305577024734106,-6.291037030140069
1124,"Terenure, Templeogue Road",53.30417281767071,-6.2934038975232
1159,"Terenure, Bushy Park",53.302390220209396,-6.29634084228485
1160,"Rathfarnham, Terenure College",53.3043935295018,-6.293125001715269
1161,"Terenure, Templeogue Road",53.3060631361465,-6.29046240113909
1162,"Terenure, Rathdown Park",53.3077322505964,-6.2877695971447
1163,"Terenure, Templeogue Road #1",53.30887332104879,-6.28586309179703
1164,"Terenure, Terenure Road East",53.3104116361098,-6.28158440093591
1165,"Rathgar, Terenure Road East",53.311712436570396,-6.276429503856139
1166,"Rathgar, Rathgar Road, Winton Avenue",53.3138905067937,-6.27290478405396
1167,"Rathgar, Rathgar Road (Garville)",53.315944909194606,-6.271395948438291
1168,"Rathmines, Rathgar Road",53.3179291684206,-6.27000988256434
1169,"Rathmines, Rathmines Park",53.32005626456161,-6.26855785990236
1170,"Rathmines, Rathgar Road (Lower Rathmines Road)",53.3216895475245,-6.266525248786861
1171,"Dublin, Lower Gardiner Street",53.350317687025296,-6.25426294905821
1172,"Summerhill (Dublin City), Lower Gardiner Street",53.3517433497793,-6.25525621732706
1173,"Summerhill (Dublin City), Lower Gardiner Street",53.3537055683595,-6.25667832329383
1174,"Summerhill (Dublin City), Mountjoy Square Park",53.356186581452896,-6.258545125411309
1175,"Dublin, Upper Gardiner Street",53.3585323776303,-6.2610035953952
1176,"Priorswood, Sports Grounds",53.399355047063395,-6.22187780324994
1177,"Priorswood, Sports Grounds (Opposite)",53.4008973630828,-6.22525748280848
1178,"Priorswood, Business Park",53.403453409690506,-6.21884924282634
1179,"Priorswood, Clonsaugh Und.Est, Business Park",53.39993114959121,-6.218921183099019
1184,"Dublin, Talbot Street (opp Bank of Ireland)",53.3508599227592,-6.253850228000291
1185,"Beaumont (Dublin City), Collins Avenue (Oak Road)",53.3763670141117,-6.221513046469309
1186,"Beaumont (Dublin City), Collins Avenue",53.3776431058353,-6.226329937860401
1187,"Beaumont (Dublin City), Saint Vincent's Court",53.378607508693506,-6.23135544113251
1188,"Beaumont, Grace Park Heights",53.3800184911121,-6.2355960831927595
1190,"Beaumont (Dublin City), Collinswood Estate",53.3801561172398,-6.235785807793911
1191,"Beaumont, Grace Park Heights",53.379217188348,-6.233073840152991
1192,"Beaumont, Collins Avenue (Celtic Park Road)",53.378633196764206,-6.23066293111023
1193,"Beaumont (Dublin City), Grace Park Meadows",53.377992199131,-6.227442768848991
1194,"Beaumont (Dublin City), Collins Avenue",53.3775262086269,-6.22511728190611
1195,"Beaumont (Dublin City), Collins Avenue (Oak Road)",53.3763899322009,-6.221241539641559
1196,"Beaumont (Dublin City), Malahide Road (Killester Avenue)",53.378024641913,-6.21454462622231
1197,"Beaumont (Dublin City), Malahide Road (Kilmore Road)",53.3792322771511,-6.211758333003429
1198,"Artane, Artane Roundabout",53.3825121951908,-6.20691559067282
1199,"Artane, Mask Avenue",53.3849844627771,-6.20276761448293
1200,"Coolock, Chanel College",53.3869626486611,-6.20103048909789
1201,"Coolock, Greencastle Road",53.3907898125494,-6.19614784293642
1202,"Darndale, junction Greencastle Road",53.392501382662495,-6.19342905043287
1203,"Darndale, Priorswood Roundabout",53.396726353628594,-6.18753567030061
1205,"Clare Hall, Malahide Road (N32)",53.4015026048782,-6.181858229286441
1218,"Darndale, Belcamp Lane",53.399705896921795,-6.18428091971538
1219,"Artane, Malahide Road (Daneli Road)",53.3813021270883,-6.20833439206846
1220,"Beaumont (Dublin City), Malahide Road (Killester Avenue)",53.378782271438595,-6.212318325602991
1221,"Donnycarney, Maypark",53.376816500071705,-6.21609825408438
1222,"Artane, Ardcollumn Avenue",53.3840661618351,-6.20685028183393
1223,"Artane, Ardlea Road, Chanel Ave",53.3852506198767,-6.20851435239853
1224,"Artane, Ardlea Road (near A1 pub)",53.386644157794294,-6.21093649115354
1225,"Artane, Ardlea Road (near A1 pub)",53.38685937921411,-6.213904269312531
1226,"Beaumont (Dublin City), Kilmore Road (Ardmore Drive)",53.3881137990287,-6.214844044211639
1227,"Coolock, Kilmore Road (Castlekevin Road)",53.391137310763796,-6.215078366051499
1228,Kilbarron Road (Cromcastle Drive),53.392218126132605,-6.21763440593652
1229,"Kilmore, Kilbarron Road (Dundaniel Road)",53.394348871734294,-6.225514960347691
1231,"Kilmore, Castletimon Road (Castletimon Avenue)",53.3954889982924,-6.22784342643998
1232,"Kilmore, Castletimon Road",53.3952854835247,-6.230483410014481
1233,"Kilmore, Ballyshannon Road",53.3943619873989,-6.23124350090559
1234,"Kilmore, Castletimon Road",53.39468787293671,-6.232613396658441
1235,"Kilmore, Dundaniel Road (Kilbarron Road)",53.394736684699296,-6.225604084189549
1237,Kilbarron Road (Cromcastle Drive),53.39266206021271,-6.21907438467046
1238,"Kilmore (Dublin City), Kilmore Rd, Kilmore Ave",53.391746097937,-6.21491756495442
1239,"Artane, Kilmore Place Apartments",53.3894921658749,-6.21505699528475
1240,"Artane, Ardlea Road (near A1 pub)",53.386818428028,-6.211169732339539
1241,"Artane, Ardlea Road, Chanel Ave",53.385879429368494,-6.209089308046969
1242,"Artane, Ardbeg Road",53.3844919489036,-6.20707292281256
1243,"Darndale, Greencastle Road",53.39490031314649,-6.19991374132292
1244,"Kilmore, Kilbarron Road (Cromcastle Green)",53.392907241618005,-6.22044750297321
1245,"Priorswood, Glin Road",53.397997268688705,-6.20621940955621
1246,"Kilmore, Saint Luke's Church",53.3934932334612,-6.22297928856435
1247,"Darndale, Greencastle Road",53.3950810945047,-6.19998129722481
1248,"Darndale, Coolock Industrial Estate",53.3929893358591,-6.19716752337167
1249,"Darndale, Coolock Drive",53.395180964893896,-6.2012402173603896
1250,"Coolock, Civic Centre Northside",53.3937390060985,-6.20755634582158
1251,"Kilmore, Saint Luke's Church",53.3934573359087,-6.22237931759761
1252,"Coolock, Kilmore Road (Tranquility Grove)",53.3936380322998,-6.21461282858834
1253,"Coolock, Kilmore Road (Tranquility Grove)",53.3939093050201,-6.21472176730549
1254,"Coolock, Bunratty Road",53.395117359828795,-6.211362996430651
1255,"Coolock, Bunratty Road",53.39435350246679,-6.2089740731887195
1256,"Coolock, Northside Civic Centre",53.393630945770205,-6.20694437999343
1258,"Darndale, Priorswood Industrial Park",53.3981874224965,-6.19082713583414
1259,"Darndale, Marigold Estate",53.398590409750206,-6.1948854845088395
1260,"Darndale, Priorswood Road",53.4001778029071,-6.19881868347104
1262,"Darndale, Fairfield Estate",53.40200422921129,-6.20490781615753
1265,"Darndale, Buttercup Estate",53.398221529718704,-6.190705381391901
1266,"Priorswood, Saint Francis Church",53.4020554115132,-6.204725184362309
1267,"Darndale, Ferrycarrig Park",53.4008555065952,-6.20024887014072
1268,"Darndale, Belcamp Avenue",53.399894267541896,-6.197898242934821
1269,"Darndale, Marigold Estate",53.3984289595154,-6.19371931703884
1270,"Edenmore, Darndale Roundabout",53.396497002677094,-6.18722962380566
1272,"Edenmore, Newton Cottages",53.39288238223,-6.19187918573742
1273,"Coolock, Greencastle Road",53.3911092146002,-6.195277288712179
1274,"Coolock, Saint Brendan's Church",53.38893881702929,-6.19797019366682
1275,"Artane, Mask Avenue",53.38558576532989,-6.20211085795644
1276,"Artane, Saint Brendan's Avenue",53.3843305541122,-6.20291542866154
1277,"Artane, Artane Roundabout",53.3826814602055,-6.20621696361687
1278,College Green,53.3442366224341,-6.261300118100049
1279,College Green,53.3442604935958,-6.26170466649104
1280,"Finglas, McKelvey Avenue",53.400196288348894,-6.30314329259755
1282,"Dublin City South, South Great George's Street",53.34234179587909,-6.2645010827273095
1283,"Dublin City South, South Great George's Street",53.341808721906396,-6.26492822950034
1284,"Dublin City South, Redmond's Hill",53.338128350966606,-6.26587355723325
1285,"Dublin City South, Grantham Street",53.334378405588204,-6.2651247542572
1286,"Kelly's Corner, Harrington Street Garda Club",53.3324996494988,-6.26572653484079
1287,"Kelly's Corner, Harrington Street",53.332478372562896,-6.2661177906657
1288,"Dublin City South, South Circular Road (Victoria St)",53.3323227536326,-6.269637622349349
1289,"Leonard's Corner, South Circular Road (Longwood Ave)",53.332129361317996,-6.2730388327702595
1290,"Leonard's Corner, Upper Clanbrassil Street",53.3307310456544,-6.27516731880573
1291,"Harolds Cross, Le Vere Terrace",53.32844661115521,-6.2763104414061
1292,"Harolds Cross, Saint Clare's Convent",53.325624605135005,-6.27819570402243
1293,"Harolds Cross, Harold's Cross Race Track",53.322860363912106,-6.27910262973284
1294,"Harolds Cross, Harold's Cross Road",53.3206000262741,-6.27880330627753
1295,"Harolds Cross, Harold's Cross Road (Rathgar Avenue)",53.317914892306604,-6.27958681712633
1296,"Rathgar, Mount Tallant Avenue",53.3155627461345,-6.28164762292477
1297,"Terenure, Terenure Road North",53.3124096124176,-6.282389614141951
1298,"Terenure, Elm Park Terrace",53.310746992472204,-6.283026651007691
1299,"Terenure, Terenure Road",53.3083957027798,-6.2839013564141295
1300,"Terenure, Rathfarnham Road",53.3062147063348,-6.283493639892191
1335,"Terenure, War Memorial Hall",53.3074174243547,-6.284000619978629
1336,"Terenure, Terenure Road",53.3088660531209,-6.28410759146052
1337,"Terenure, Terenure Road North",53.311179037374,-6.2830693410482
1338,"Terenure, Whitton Road",53.312430386262704,-6.2825838843071695
1339,"Rathgar, Mount Tallant Avenue",53.315023862340404,-6.28229964697715
1340,"Rathgar, Mount Tallant Avenue",53.3164701422711,-6.2809957809054895
1341,"Harolds Cross, Harold's Cross Road (Rathgar Avenue)",53.3192275894617,-6.27899363575735
1342,"Harolds Cross, Harold's Cross Road",53.321345499097994,-6.27938875924039
1343,"Harolds Cross, Shamrock Villas Estate",53.3226672850414,-6.27942564411739
1344,"Harolds Cross, Harold's Cross Road (Greenmount Lane)",53.327171064381,-6.2776079633583795
1345,"Harolds Cross, Le Vere Terrace",53.3287960763033,-6.276236296388809
1347,"Leonard's Corner, Upper Clanbrassil Street",53.3311830098566,-6.27534427274469
1348,"Leonard's Corner, South Circular Road (Longwood Ave)",53.3322495353619,-6.27388983282421
1349,South Circular Road (Carlisle St),53.332385727904395,-6.27088132287856
1350,"Kelly's Corner, Saint Kevin's Church",53.3325610927812,-6.267480811819861
1352,"Dublin City South, Upper Camden Street",53.3344454316074,-6.26540733380828
1353,"Dublin City South, Camden Street",53.33600953362989,-6.26541893799966
1354,"Dublin City South, Aungier Street",53.3390480888871,-6.2660765148576
1355,"Dublin City South, Whitefriars Street Church",53.3400962425888,-6.2658387554144594
1357,"Dublin City South, Exchequer Street",53.342567894405605,-6.26459703020816
1358,"Temple Bar, Central Bank",53.344304713385,-6.26288938939082
1359,College Green,53.34439940636129,-6.261368590433661
1360,"Leonard's Corner, South Circular Road (Clanbrassil St)",53.3319833877849,-6.276618277525519
1362,"Leonard's Corner, National Stadium",53.3312039603907,-6.27990787352224
1363,"Warrenmount, South Circular Road (Clogher Road)",53.3318459312211,-6.28516726502174
1365,"Dolphins Barn, Dolphin's Barn Church",53.3329015319242,-6.2904553130439105
1366,"Rialto, Church Avenue South",53.3351603526097,-6.29441928402361
1367,"Rialto, Rialto Parish Centre",53.335639306634704,-6.2964874155454895
1369,"Kilmainham, South Circular Road (Mountshannon Road)",53.3388672150255,-6.30224552041051
1370,"Kilmainham, Hybreasal House",53.3391885807998,-6.3052512455659295
1371,"Kilmainham, Suir Road (S Circular Rd)",53.3388761644861,-6.3079367063602305
1372,"Goldenbridge, Goldenbridge Avenue",53.338103694548295,-6.309874446423451
1373,"Goldenbridge, Goldenbridge Avenue",53.337774759111994,-6.31203486545017
1374,"Inchicore, Southern Cross Avenue",53.339217710259504,-6.31301407116772
1375,"Inchicore, Bulfin Road",53.3395561606215,-6.312159731856309
1376,"Inchicore, Bulfin Road",53.3395079105859,-6.308752671800881
1377,"Kilmainham, The Paddocks",53.3391633646051,-6.304741655270799
1378,"Kilmainham, South Circular Road (Mountshannon Road)",53.338827874904005,-6.30137608273126
1379,"Kilmainham, Rialto Bridge",53.3373397013519,-6.2991226532094
1380,"Rialto, South Circular Road",53.335641002262605,-6.2959767991197
1381,"Dolphins Barn, South Circular Road (Haroldville Avenue)",53.3351237466265,-6.293745026298809
1382,"Dolphins Barn, Dolphin's Barn Church",53.33317317067021,-6.290594602058929
1383,"Dolphins Barn, South Circular Road (Dolphin Ave)",53.332271078354204,-6.2866066629257205
1384,"Warrenmount, South Circular Road (Clogher Road)",53.331356198183094,-6.282364153756161
1385,"Leonard's Corner, South Circular Road (Greenville Tce)",53.3318004002729,-6.278262271833089
1386,"Harolds Cross, Clogher Road (Parnell Road)",53.3295526186271,-6.28444849901105
1387,"Harolds Cross, Clogher Road (Aughavanagh Road)",53.32804054936771,-6.28680623917293
1388,"Kimmage, Goldstone Court",53.3267732721467,-6.291195788684949
1389,"Dolphins Barn, Saint Bernadette's Church",53.326088223862705,-6.2954567750968895
1391,"Crumlin, Bangor Circle",53.3228221151074,-6.298364123499099
1392,"Crumlin, Clonmacnoise Grove",53.322491015166996,-6.3016197861707495
1394,"Crumlin, Clonmacnoise Road (Kildare Road)",53.3237430594661,-6.29676623092555
1395,"Crumlin, Citizen Advice Centre",53.3247339571109,-6.296291402924111
1396,"Crumlin, Pearse Memorial Park",53.3249002682378,-6.314960137227651
1397,"Crumlin, Pearse Memorial Park",53.3250914014139,-6.313856700052839
1398,"Crumlin, Kildare Road (Windmill Road)",53.3253013793644,-6.31027545066518
1399,"Crumlin, Kildare Road (Clonard Road)",53.3251428005771,-6.30543270310374
1400,"Crumlin, Bangor Circle",53.3236248160114,-6.29981835985768
1401,"Crumlin, Clogher Road",53.325396815892894,-6.29865198476899
1402,"Dolphins Barn, Saint Bernadette's Church",53.325987931117,-6.29598621972538
1403,"Kimmage, Goldstone Court",53.32715406488621,-6.28954413336686
1404,"Harolds Cross, Clogher Road (Aughavanagh Road)",53.32820051811729,-6.286679720516091
1405,"Harolds Cross, Clogher Road (Parnell Road)",53.3298216746236,-6.284407673682179
1406,"Dolphins Barn, Dolphin's Barn",53.3331529314518,-6.2916915268409905
1407,"Dolphins Barn, Crumlin Road, Rutland Avenue",53.331504287227794,-6.29456515958496
1409,"Dolphins Barn, Crumlin Road, Sundrive Road",53.330386209920206,-6.297462480366981
1410,"Drimnagh, Keeper Road (Sundrive Road)",53.3314169223623,-6.29977873066415
1411,"Drimnagh, Keeper Road (Brickfield Road)",53.3320510264254,-6.303282004172339
1412,"Drimnagh, Brickfields Park",53.33268165430571,-6.305914642678361
1413,"Drimnagh, Mourne Road (Brickfields Park)",53.3334413912375,-6.30878249418882
1414,"Drimnagh, Mourne Road",53.333347606472394,-6.31231480140328
1415,"Drimnagh, Mourne Road",53.3324432485375,-6.31637452092601
1417,"Drimnagh, Our Lady Of Mercy School",53.3310322127926,-6.3195681189851705
1418,"Drimnagh, Mourne Road (Cooley Road)",53.3300297592351,-6.32306077006057
1419,"Drimnagh, Errigal Road (Brandon Road)",53.3277177272247,-6.322911243065501
1421,"Drimnagh, Drimnagh Road (Our Lady's Hospital for Sick Children)",53.324950765953105,-6.3204526633011
1423,"Drimnagh, Drimnagh Road (Our Lady's Hospital for Sick Children)",53.3249994890335,-6.319444921926269
1424,"Drimnagh, Crumlin Road (Cooley Road)",53.325662512585296,-6.31674662153124
1425,"Drimnagh, Cooley Road (Our Lady's Hospital for Sick Children)",53.32701317197579,-6.31819475352095
1426,"Drimnagh, Cooley Road",53.32927487884461,-6.3224297711686095
1427,"Drimnagh, Mourne Road (Cooley Road)",53.3302711584121,-6.322330619379059
1428,"Drimnagh, Our Lady Of Mercy School",53.3313588786113,-6.3191498840126705
1429,"Drimnagh, Mourne Road",53.3325932071671,-6.316173419263039
1430,"Drimnagh, Mourne Road",53.3335737954735,-6.31114968646878
1432,"Drimnagh, Mourne Road (Brickfields Park)",53.33349874030561,-6.30838982573818
1433,"Drimnagh, Brickfields Park",53.3325721531997,-6.30579886199235
1434,"Drimnagh, Keeper Road (Brickfield Road)",53.3319924475904,-6.302323379152731
1435,"Drimnagh, Keeper Road (Sundrive Road)",53.3313880462685,-6.299014132466151
1436,"Dolphins Barn, Crumlin Road, Herberton Road",53.33088495769321,-6.29651171993406
1438,"Warrenmount, Saint Thomas Road",53.3363829768538,-6.279414136183849
1439,"Warrenmount, Donore Credit Union",53.3340584156796,-6.28276609921309
1440,"Warrenmount, Donore Avenue",53.3319900593805,-6.2833146521684595
1441,"Crumlin, Kildare Road (Bangor Road)",53.3248749009902,-6.303026333221849
1442,"Crumlin, Kildare Road (Clonard Road)",53.3251668742239,-6.307128154770781
1443,"Dublin City South, Essex Quay",53.3451293906923,-6.26953955862608
1444,"Dublin City South, Merchant's Quay",53.3451184146618,-6.273745471452889
1445,"James's Gate, Ushers Quay",53.3456784102525,-6.2782888396172
1447,"James's Gate, Guinness Store",53.3466296445148,-6.28817874961118
1449,"Phoenix Park, Conyngham Road Bus Garage",53.348152829994895,-6.29789609467721
1450,"Phoenix Park, Wellington Monument",53.3481554042344,-6.30186141311769
1451,"Islandbridge, Bridgewater Business Centre",53.3482782789353,-6.30544644496588
1452,"Islandbridge, Clancy Barracks",53.3455838768388,-6.308121663417361
1453,"Drimnagh, Galtymore Rd (Slievenamon Rd)",53.3345361691504,-6.306757101430381
1454,"Kilmainham, Suir Road (O'Leary Rd)",53.3377755530274,-6.307649910264961
1455,"Drimnagh, GAA Grounds",53.3353851151101,-6.305777460313361
1456,"Drimnagh, Galtymore Road (Galtymore Dr)",53.334873309138004,-6.30898110692312
1457,"Drimnagh, Galtymore Road (Benbulbin Rd)",53.3353026586989,-6.312643038327191
1458,"Drimnagh, Galtymore Road (Sperrin Rd)",53.334770619922296,-6.31697357484942
1459,"Drimnagh, Galtymore Road (Carrow Rd)",53.3340633154256,-6.319719237227731
1460,"Drimnagh, Galtymore Road (Galtymore Pk)",53.332356100824605,-6.321032584202219
1462,"Drimnagh, Galtymore Road (Cooley Road)",53.3304629315882,-6.32382451982613
1463,"Drimnagh, Galtymore Road (Cooley Road)",53.3306239948586,-6.3237731617296395
1464,"Drimnagh, Galtymore Road (Sperrin Rd)",53.3348988015381,-6.316503036703691
1465,"Drimnagh, Galtymore Road (Galtymore Dr)",53.3347967644626,-6.30865378723676
1466,"Drimnagh, Galtymore Rd (Slievenamon Rd)",53.3345289258282,-6.3062468535897604
1467,"Drimnagh, GAA Grounds",53.33565737602329,-6.305961877883839
1468,"Kilmainham, Suir Road (O'Leary Rd)",53.3375666016185,-6.30749299954438
1469,"Drimnagh, Galtymore Road (Benbulbin Rd)",53.3352591593202,-6.31338053815391
1471,"Islandbridge, Islandbridge Court",53.3455323201996,-6.308288920492901
1472,"Islandbridge, Bridgewater Centre",53.3484294679782,-6.305966169661129
1473,"Phoenix Park, Conyngham Road Bus Depot",53.3483059784729,-6.298550898977151
1474,"Heuston Station, Heuston Bridge",53.34794791595839,-6.29236170464093
1476,"Wolfe Tone Quay, Ellis Street",53.347001822417205,-6.28467916066221
1478,"Smithfield, Inns Quay",53.3456460888696,-6.27294312668563
1479,"Dublin, Upper Ormond Quay",53.3459159600278,-6.269237344218861
1480,"Smithfield, Ormond House",53.3456934492702,-6.2706281736218
1481,"Fairview, Philipsburgh Avenue (Melrose Avenue)",53.365053868611895,-6.23989609720882
1482,"Marino, Saint Mary's College",53.3717085781519,-6.2364806455537
1484,"Fairview, Turlough Gardens",53.363697709108,-6.239967029328799
1485,"Fairview, Turlough Gardens",53.36404581769921,-6.239802416922469
1486,"Fairview, Philipsburgh Avenue (Croydon Gardens)",53.3709747783035,-6.238524809022059
1487,"Marino, Griffith Avenue (Charlemont Estate)",53.3718192548925,-6.236671449963731
1488,"Marino, Saint Mary's College",53.37108885542379,-6.23468777023624
1489,"Marino, Saint Vincent De Paul Church",53.3701586652324,-6.231961007602361
1490,Griffith Avenue (Malahide Road),53.36887682169001,-6.22855766174829
1491,Griffith Avenue (Malahide Road),53.3684677618855,-6.22764290979838
1492,"Marino, Saint Vincent De Paul Church",53.3702573904197,-6.23255805716234
1493,"Marino, Saint Mary's College",53.37121340445889,-6.235208627204179
1494,"Marino, Croydon Gardens",53.3706730149261,-6.235741941632531
1495,"Marino, Croydon Park Avenue",53.368755940568505,-6.23556569739488
1496,"Marino, Marino Green",53.3671481166124,-6.23381383826092
1499,"Marino, Brian Road",53.365779488707105,-6.23729658684485
1500,Outside Connolly Station,53.351039588903504,-6.2501625777547805
1505,"Dublin, Parnell Street",53.354028963181804,-6.257896984871401
1506,"Glasnevin, Finglas Road",53.3667778214166,-6.27237390919528
1507,"Glasnevin, Saint Vincent's School",53.368390520312005,-6.27450269164138
1508,"Glasnevin, Claremont Court",53.3699109022633,-6.278333551156809
1509,"Finglas South, Finglas Road",53.3729258340421,-6.28422366048831
1510,"Glasnevin, Finglas Road",53.37690692952129,-6.287310237187111
1511,"Finglas South, Finglas Road (Opp Old Finglas Road)",53.3782345231781,-6.2877529845706706
1512,"Finglas South, Ardmore Hotel",53.382123220288804,-6.291926304041961
1513,"Glasnevin, Finneber Fort",53.386767433941,-6.296776803329049
1514,Finglas Village (Seamus Ennis Road),53.3894651562214,-6.30002191446059
1515,"Fairview,St. Aidan's Park Road",53.3661143161413,-6.23319541821689
1518,"Finglas South, Kildonan Road",53.3906003885099,-6.31161412406028
1519,"Finglas, Kildonan Road",53.392444869559995,-6.3117516179852595
1520,"Finglas, Barry Road",53.393920198925,-6.311843586577849
1521,"Finglas, Plunkett Green",53.3972212992971,-6.31075049408942
1523,"Finglas, Plunkett Avenue",53.397878850613395,-6.30958155709762
1524,"Finglas, Barry Aveune",53.3955562648928,-6.310590887143889
1525,"Finglas, Barry Road",53.3940692958004,-6.31158206161738
1526,"Finglas, Kildonan Park",53.392306937031094,-6.31153153662509
1528,"Cabra East, Phoenix Manor",53.3561954281552,-6.29400002572951
1529,"Glasnevin, Saint Canice's Church",53.3884588269273,-6.298152606897769
1530,"Glasnevin, Finneber Fort",53.3868461358084,-6.2966233195765
1531,"Glasnevin, Clearwater Shopping Centre",53.38374366402739,-6.29336474093086
1532,"Glasnevin, Ardmore Hotel",53.3816891441172,-6.290485541453131
1533,"Glasnevin, Finglas Road",53.378967884758,-6.2874980880021
1534,"Glasnevin, Ballyboggan Road",53.375332839158,-6.285975602874959
1535,"Glasnevin, Willows Estate",53.372305958137396,-6.282369943937991
1536,"Cabra East, Glasnevin Cemetery Main Gate",53.369626028482706,-6.27727804257368
1537,"Glasnevin, Saint Vincent's School",53.3680662049778,-6.27320839893701
1538,"Finglas South, Finglas Road",53.3845203435995,-6.2948821084308895
1539,"Glasnevin, Glasanaon Road",53.3831357990658,-6.27919801572373
1540,"Glasnevin, Johnstown Park (Griffith Road)",53.3843403099774,-6.284200628843959
1547,"Finglas, Mellowes Park",53.395241165815804,-6.30168636640583
1548,"Finglas, Mellowes Park",53.3961101450105,-6.30274949327834
1549,"Finglas, Casement Road",53.3974326561122,-6.3066367830713705
1558,"Finglas, Saint Margaret's Road",53.3998175109931,-6.303053094517581
1559,"Finglas, Casement Road",53.3973411212961,-6.30652011500249
1560,"Finglas, Roundabout McKee Avenue",53.397007542354004,-6.304548381458781
1566,"Glasnevin, Johnstown Park (Griffith Road)",53.3844074206077,-6.28386719661232
1567,"Glasnevin, Johnstown Park",53.3840139569876,-6.28026002177018
1573,"Finglas South, Cardiffsbridge Road",53.384024164731706,-6.31246066242432
1574,"Finglas South, Scout's Den",53.3855939979914,-6.31287964710487
1575,"Finglas South, Colaiste Ide",53.3870584339508,-6.312836768123231
1576,"Finglas South, Cappagh Road",53.3893174054908,-6.31304812471741
1577,"Finglas South, Abbottstown Road",53.3898858080548,-6.3157470168664505
1578,"Finglas, Cappagh Road",53.39040394237921,-6.3180720770738
1579,"Finglas, Cappagh Hospital",53.393521577243604,-6.323738176628269
1582,"Finglas, Cappagh Hospital",53.3927698845652,-6.32205359231629
1584,"Finglas South, Abbottstown Road",53.38991304526589,-6.315129498070849
1585,"Finglas South, Church of the Annunciation",53.3887329376982,-6.31239467200153
1586,"Finglas South, Colaiste Ide",53.386471142827304,-6.31261944983538
1587,"Finglas South, Cardiffsbridge Road",53.3833935040291,-6.311718927406861
1591,"Finglas South, Wellmount Road (Finglasa Road)",53.3871387918528,-6.29949821324412
1592,"Finglas South, Tolka Valley Road",53.379720918945,-6.28924160522583
1593,"Finglas South, Tolka Valley Park",53.378914773394605,-6.29445974940212
1594,"Finglas South, Gortbeigh Avenue",53.3794568556816,-6.297173828071901
1595,"Finglas South, Saint Helena's Road (Gortmore Avenue)",53.3807395003043,-6.29761869973186
1596,"Finglas South, Saint Helena's Road (Farnham Drive)",53.38304109530151,-6.300819057253151
1597,"Finglas South, Valeview Gardens",53.3804552155942,-6.30923466596562
1598,"Finglas South, Bearnamore Estate",53.380188706919796,-6.30565262683537
1599,"Finglas South, Glenties Estate",53.380828737470395,-6.31085835538502
1600,"Finglas South, Deanstown Avenue",53.383597017886494,-6.312763183511809
1601,"Finglas South, Deanstown Drive",53.38389431347299,-6.31472076129327
1602,"Finglas South, Patrician College",53.384418003166,-6.3187139572728
1603,"Finglas South, Eastwood Estate",53.3835188568842,-6.31868925643626
1604,"Finglas South, Rathvilly Park",53.3837908158815,-6.31630331914478
1605,"Whitehall (Dublin City), Collins Avenue West",53.3881269998186,-6.260173268833491
1606,"Finglas South, Saint Helena's Road",53.380370683576004,-6.306442089836861
1607,"Finglas South, Dunsink Green",53.3821613835434,-6.303424647535371
1608,"Finglas South, Saint Helena's Community Centre",53.383049856853106,-6.299540918729581
1609,"Finglas South, Cloonlara Estate",53.38038423807551,-6.29728713957775
1610,"Finglas South, Tolka Valley Road",53.378762578331795,-6.296389840937019
1614,"Dublin, Constitution Hill",53.3512573878221,-6.2737527635738095
1615,"Smithfield, Law Library",53.34782716536161,-6.2745973323313295
1616,"Smithfield, Law Library",53.347285072294,-6.27502477300754
1617,"Smithfield, Capuchin Mission Office",53.3491697338082,-6.27482850622983
1618,"Grangegorman (Dublin City), Church Street",53.3508870581217,-6.2742484187074
1619,"Grangegorman, Kings Inn",53.3529126950418,-6.27323519870162
1620,"Whitehall, Swords Road",53.383263520351,-6.244150984474749
1641,"Whitehall, Swords Road",53.3865272844342,-6.2423929664579
1642,"Whitehall, Whitehall Church",53.384001785205896,-6.24362450358359
1643,"Whitehall (Dublin City), Saint Aidan's School",53.384481610933705,-6.249978931273009
1644,"Whitehall (Dublin City), Dublin City University DCU",53.3866934438385,-6.25617249971039
1646,"Whitehall (Dublin City), Dublin City University DCU",53.38715464946961,-6.25698053714182
1647,"Wolfe Tone Quay, Law Society",53.348351063568,-6.2822517262027
1648,"Arbour Hill, Arbour Place",53.3510913675303,-6.2828024851050195
1649,"Arbour Hill, Aughrim Street",53.3525701350131,-6.28438044847903
1650,"Clontarf, Castle Avenue",53.3611743870623,-6.209314275343111
1651,"Clontarf, Vernon Avenue",53.36794040662829,-6.194859334235481
1652,"Clontarf, Clontarf Castle Entrance",53.363355586012496,-6.20612742264059
1654,"Cabra East, Blackhorse Avenue",53.3561451797295,-6.29425742995531
1655,"Cabra, Blackhorse Avenue (Glenbeigh Avenue)",53.356732171847,-6.296968274115139
1656,"Cabra, McKee Barracks",53.35729727900021,-6.298778637748031
1657,"Cabra, Blackhorse Avenue",53.358392108063704,-6.3030769992370095
1658,"Cabra, Skreen Road (Ardpatrick Road)",53.3619888217441,-6.30951518790604
1659,"Cabra, Skreen Road (Navan Road)",53.3632599650494,-6.30471669903602
1660,"Cabra, Navan Road (Nephin Road)",53.3651865517873,-6.3093735530651704
1661,"Cabra, Navan Road (Church)",53.3664436172409,-6.313095537793861
1662,"Cabra, Navan Road (Kinvara Estate)",53.3675406916951,-6.31759043995833
1664,"Cabra, Navan Road (Ashtown Grove)",53.3694085180285,-6.32385863047439
1665,"Ashtown, Navan Road",53.3706578377534,-6.32770193003479
1666,"Ashtown, Ashtown Roundabout",53.371597150647794,-6.33059573112209
1667,"Ashtown, Ashtown Gate",53.370869767047395,-6.33450151947604
1668,"Ashtown, Old Race Course",53.3708427403677,-6.34030355015358
1694,"Ashtown, Old Race Course",53.3710173888657,-6.33993607589947
1695,"Ashtown, Ashtown Gate",53.3710101423756,-6.33425558646775
1696,"Ashtown, Navan Road",53.3715415173176,-6.32983144331411
1697,"Ashtown, Kempton Estate",53.3708011457454,-6.327666258942161
1698,"Cabra, Navan Road (Ashtown Grove)",53.3695772972019,-6.32371675132509
1699,"Cabra, Navan Road (Ashtown Grove)",53.368743605671796,-6.32131499536448
1700,"Cabra, Navan Road (Kinvara Estate)",53.36770882805679,-6.317403485467151
1701,"Cabra, Navan Road (Church)",53.36656725614161,-6.3129403827244195
1702,"Cabra, Navan Road (Nephin Road)",53.3656108301727,-6.31013813858873
1703,"Cabra, Navan Road (Nephin Road)",53.3647353990213,-6.307347833762409
1704,"Cabra, Skreen Road (Navan Road)",53.363052266208,-6.30528089867268
1705,"Cabra, Skreen Road (Ardpatrick Road)",53.3621807471602,-6.30847083369411
1706,"Cabra, Cemetery",53.3600698255997,-6.307292375272441
1707,"Cabra, Blackhorse Avenue",53.358428266349,-6.302459572671309
1708,"Cabra, McKee Barracks",53.35733235447471,-6.29871714548453
1709,"Cabra, Blackhorse Avenue (Glenbeigh Avenue)",53.3568682016769,-6.297052991437269
1710,"Arbour Hill, Drumalee Estate",53.3555699040255,-6.29174149147947
1711,"Arbour Hill, The Holy Family Church",53.3545779754891,-6.28963290156871
1712,"Arbour Hill, Aughrim Street",53.353333917003205,-6.286242591763839
1713,"Arbour Hill, Stanhope Street Convent",53.351907820017004,-6.283325473453231
1714,"Arbour Hill, Brunswick Street",53.3506378069371,-6.28188938800201
1715,"Smithfield, Blackhall Street",53.3477119821784,-6.282187299518559
1724,"Dollymount, Clontarf Road (near Mount Prospect Ave)",53.3657153153763,-6.17444158948899
1725,"Dollymount, Doyle's Lane",53.3637602626912,-6.17707965691367
1726,"Dollymount, Dollymount Park",53.3622913896674,-6.179185876116639
1727,"Dollymount, Kincora Road",53.36060397370629,-6.182878901225999
1728,"Dollymount, Conquer Hill Road",53.3596562743545,-6.186164596251321
1729,"Dollymount, Clontarf Bus Garage",53.358481218099,-6.190466418739719
1730,"Dollymount, Vernon Court",53.35823109074121,-6.19412792894392
1731,"Clontarf, Clontarf Road at Church",53.359096533758,-6.19667556587985
1732,"Clontarf, Oultan Road",53.36009974550839,-6.2024027873027805
1733,"Clontarf, Clontarf Road (near Scoil Uí Chonaill)",53.3602126155145,-6.20631955975878
1734,"Clontarf, Clontarf Road (Castle Avenue)",53.3603891356074,-6.210293782896559
1735,"Clontarf, Styles Road",53.361143327090595,-6.21443920712788
1736,"Clontarf, Saint Lawrence Road",53.3621421815528,-6.2169217466278495
1737,"Clontarf, Saint Lawrence Road",53.3621895624005,-6.2170850503091595
1738,Clontarf Road Junction Alfie Byrne Road,53.3628941786378,-6.21973023935834
1739,"Marino, Clontarf Road (at DART Station)",53.363885194630896,-6.22652585924791
1740,"Marino, Clontarf Road (at DART Station)",53.36414161674621,-6.2268457873413094
1741,Clontarf Road Junction Strandville Avenu,53.3629172715096,-6.2206759088764505
1742,"Clontarf, Saint Lawrence Road",53.36212579331529,-6.216426584861621
1743,"Clontarf, Styles Road",53.3611356864305,-6.21392866651198
1744,"Clontarf, Clontarf Road (Castle Avenue)",53.360384795336294,-6.20880648543212
1745,"Clontarf, Clontarf Road (near Scoil Uí Chonaill)",53.3603821064624,-6.20563631294093
1746,"Clontarf, Oultan Road",53.3602565190474,-6.20266663792763
1747,"Clontarf, Clontarf Road at Church",53.35930267631021,-6.1966368112015
1748,"Dollymount, Vernon Court",53.3582570201128,-6.19346576182192
1749,"Dollymount, Clontarf Bus Garage",53.3586249368601,-6.190460328809889
1750,"Raheny, Thornhill Lane",53.3688677027256,-6.17780832862968
1751,"Dollymount, Conquer Hill Road",53.359812707362394,-6.185812378842259
1752,"Dollymount, Seaview Point",53.3611275917068,-6.181849918585661
1753,"Dollymount, Dollymount Park",53.3621186154932,-6.179644015647991
1754,"Dollymount, Dollymount Avenue",53.364115656468705,-6.176809033574701
1755,"Dollymount, Seapark Apartments",53.366429976972,-6.18712407524492
1756,"Dollymount, Mount Prospect Ave (Dollymount Ave)",53.3672099080423,-6.182853198627879
1757,"Raheny, Park Lawn",53.368629641887104,-6.182236727622611
1758,"Dollymount, Baymount Park",53.3681296759012,-6.175390292328269
1759,"Dollymount, Clontarf Road (near Mount Prospect Ave)",53.366000222729795,-6.174264108430309
1760,"Dollymount, Seapark Road (Mount Prospect Avenue)",53.3659722446511,-6.187759621923091
1761,Seapark Road (Seafield Road),53.3638373979427,-6.188045579854679
1762,"Dollymount, Seafield Road East (Seafield Avenue)",53.36375118736779,-6.19124983539217
1763,"Dollymount, Vernon Avenue",53.3644067789412,-6.1953693752523895
1764,"Clontarf, Black Heath Court",53.365892968742706,-6.19557704044883
1765,"Clontarf, Blackheath Grove",53.3665617639449,-6.20237114167197
1766,"Clontarf, Blackheath Grove",53.36663226629889,-6.20227800944198
1767,"Clontarf, Clontarf Castle",53.3651156005984,-6.20482128202738
1769,"Dollymount, Mount Prospect Avenue",53.368885783569205,-6.1819402864647905
1770,"Dollymount, Mount Prospect Avenue",53.367083468779,-6.18281349818964
1771,"Dollymount, Saint Gabriel's Road",53.36604192033171,-6.185247140158861
1772,"Clontarf, Saint John The Baptist Cemetery",53.36501074751389,-6.20502103771963
1773,"Clontarf, Blackheath Park",53.3668109134426,-6.2033975358373405
1774,"Clontarf, Blackheath Park (Blackheath Avenue)",53.366120994307096,-6.19758103342006
1775,"Dollymount, Vernon Avenue",53.3644399833339,-6.19518765370067
1776,"Dollymount, Seafield Road East (Seafield Avenue)",53.3638160053874,-6.1919683516038395
1777,"Dollymount, Seafield Avenue",53.3653120792154,-6.1910484659595
1778,"Dollymount, Mount Prospect Avenue (Mount Prospect Park)",53.3666136880704,-6.1891599851722505
1782,"Artane, Gracefield Road",53.3823894993402,-6.1981716507413305
1783,"Artane, Saint Brendan's School",53.3838032158922,-6.19596218165506
1784,"Coolock, Gorsefield Court",53.384620981283,-6.1929810133564605
1785,"Harmonstown, McAuley Drive",53.3825960633072,-6.191623614929769
1786,"Harmonstown, Ribh Road",53.3819941363959,-6.19223540172876
1788,"Edenmore, Millbrook Road (Tonlegee Road)",53.391614051062,-6.17880643395275
1789,"Edenmore, Millbrook Road",53.3942624574249,-6.1786031191802095
1791,"Edenmore, GAA Sports Ground",53.3965874453453,-6.18194749011522
1792,"Edenmore, Millbrook Road",53.3935247615054,-6.17855943972057
1793,"Edenmore, Millbrook Road (Tonlegee Road)",53.3916843046716,-6.17869818119338
1794,"Raheny, Thornhill Lane",53.3694410695083,-6.17945199515198
1795,"Cabra, Cabra Road",53.3615033956228,-6.296868142243559
1796,"Harmonstown, McAuley Park",53.381789345579996,-6.19117676197823
1797,"Harmonstown, McAuley Drive",53.383127845385395,-6.19172134030205
1798,"Artane, Ainninn Drive",53.384383910038096,-6.19453950864013
1799,"Artane, Mask Crescent",53.383058682835504,-6.196655117597049
1800,"Artane, Gracefield Road",53.3823067907417,-6.19924247171126
1801,"Artane, Gracefield Road",53.3823969984385,-6.20224522816109
1802,"Cabra East, Cabra Road (Carnlough Road)",53.361380323440706,-6.294544145495629
1803,"Cabra East, Cabra Road (Carnlough Road)",53.361563598703796,-6.2941611939632205
1804,"Cabra, Cabra Road",53.3616973947104,-6.29723603716658
1805,"Cabra, Dunard Estate",53.36116270390801,-6.29755786085374
1806,"Cabra, Navan Road",53.3629069059087,-6.302642142098151
1807,"Ashtown, Navan Road (Old Race Course)",53.3744144643082,-6.339262883404549
1847,"Ashtown, Navan Road (Old Race Course)",53.3749277583846,-6.339979374433991
1905,"Cabra, Navan Road",53.3633746469215,-6.30329971300526
1906,"Cabra, Cabra Cross",53.36120076202029,-6.29707553938411
1907,"Cabra East, Railway Bridge",53.3599049453531,-6.29382178508836
1908,"Cabra East, Cabra Drive",53.3586907975484,-6.291256072768429
1909,"Arbour Hill, Prussia Street",53.356960263150995,-6.28841072316956
1911,"Arbour Hill, Prussia Street",53.3566345096131,-6.28825851915213
1913,"Cabra East, Cabra Drive",53.358806332072,-6.29179232473619
1914,"Cabra East, Old Cabra Road",53.360215762689506,-6.2948160274661396
1934,"Temple Bar, Dame Street",53.3442905615546,-6.2656234692016195
1935,"Dublin City South, Carnegie Centre",53.343934346215896,-6.26832635157409
1937,"Liberties, High Street",53.3430874992184,-6.27315167433484
1938,"Liberties, Thomas Street (John Street)",53.3429778949688,-6.27676060847678
1939,"Liberties, Thomas Street (St. Catherine's Lane)",53.3429982683414,-6.280664666542799
1940,"James's Gate, James Street",53.3435386006474,-6.285734347932321
1941,"James's Gate, James Street",53.3433454019831,-6.28918142026463
1942,"Kilmainham, Saint James Hospital",53.34225498339929,-6.29463172936893
1943,"Kilmainham, Mount Brown",53.341373263699104,-6.2983463657131695
1944,"Kilmainham, Old Kilmainham",53.3406753265043,-6.303615405340401
1945,"Inchicore, Emmett Road",53.34055478416929,-6.30968740041896
1946,"Inchicore, Emmet Road",53.34011880493179,-6.316357476886799
1947,"Inchicore, Emmet Road",53.3398178565031,-6.31796119520697
1948,"Inchicore, Tyrconnell Road",53.3386701347326,-6.3219859134116305
1949,"Inchicore, Tyrconnell Road",53.3376414795987,-6.323618080346769
1950,"Inchicore, Church",53.336021044247296,-6.32599413397449
1951,"Bluebell (Dublin City), Lansdowne Valley Park",53.3331348380325,-6.3291252191704706
1952,"Bluebell (Dublin City), Lansdowne Valley Park",53.331550549881705,-6.33023816806491
1953,"Bluebell, Entrance to Bluebell",53.32999449949221,-6.33208562071694
1954,"Bluebell, Naas Road",53.3287741741428,-6.334805659054769
1955,"Bluebell (Dublin City), Carriglea Industrial Estate",53.327945707171004,-6.3379156633767995
1956,"Bluebell, Naas Road (Kylemore Road)",53.3263654179245,-6.34384709401736
1981,"Bluebell, Naas Road (Kylemore Road)",53.3264867532132,-6.344818227471559
1982,"Bluebell, Naas Road (Kylemore Road)",53.3272299503082,-6.34202704890607
1984,"Bluebell, Naas Road",53.3294445318954,-6.333893729471379
1985,"Bluebell (Dublin City), Lansdowne Valley Park",53.3329236566366,-6.32944879131458
1986,"Inchicore, Tyrconnell Road",53.3353553796487,-6.32723649887249
1987,"Inchicore, Oblate of Mary Immaculate Church",53.3362899055526,-6.32593855473876
1988,"Inchicore, Oblate Church",53.3382603815004,-6.322888004933599
1989,"Inchicore, Camac Close",53.3397064788455,-6.31898677046978
1990,"Inchicore, Emmet Road",53.34047278179499,-6.31469157313953
1992,"Inchicore, Emmett Road",53.3406544981518,-6.3091127770197595
1993,"Kilmainham, Old Kilmainham",53.34085366139271,-6.30477972664047
1994,"Kilmainham, Saint James's Hospital",53.3414239628449,-6.29938060050009
1995,"Kilmainham, Ewington Lane",53.342675185966705,-6.29321822745695
1996,"James's Gate, James Street",53.343560071834204,-6.288481953764019
1997,"James's Gate, James Street",53.343571081213,-6.2854927415615
1998,"Liberties, Thomas Street (St. Catherine's Lane)",53.3431396148983,-6.280493772137111
1999,"Liberties, Thomas Street (John Street)",53.3431192358309,-6.27658970136464
2001,"Dublin City South, Saint Audeon's Church",53.34331047323089,-6.27365330535553
2002,"Dublin City South, Lord Edward Street",53.343770806586505,-6.269444390031401
2003,"Dublin City South, Lord Edward Street",53.34404126860029,-6.2682619415957
2085,"Donnybrook, R.T.E. Televison Studios",53.3151737463869,-6.2201861561969505
2086,"Merrion, Nutley Lane",53.3181567845485,-6.21470338209092
2087,"Merrion, Merlyn Park",53.3206094716409,-6.212829685015009
2088,"Merrion, Nutley Lane (Saint Vincent's Hospital)",53.3172966893469,-6.216090174696231
2089,"Donnybrook, Elm Park Golf Club",53.315301993767,-6.21974555361791
2094,"The Coombe, Coombe Maternity Hospital",53.334751966404895,-6.28975063819718
2095,"Crumlin, Crumlin College",53.3290374667768,-6.3024707515015
2096,"Crumlin, Crumlin Road",53.32808359048121,-6.306817491016541
2097,"Crumlin, Iveagh Gardens",53.3274327540337,-6.30972580638998
2099,"Drimnagh, Crumlin Road (Cooley Road)",53.325561581391604,-6.31660046938251
2101,"Walkinstown, Crumlin Childrens Hospital",53.3249374452139,-6.31823136157804
2102,"Drimnagh, Drimnagh Rd, Balfe Rd",53.3242410248988,-6.32623016690377
2103,"Walkinstown, Shopping Centre",53.322082695480006,-6.32999241707338
2105,"Drimnagh, Long Mile Road",53.3236628172002,-6.337586750676239
2181,"Drimnagh, Long Mile Road",53.3239009854205,-6.33919877923563
2182,"Drimnagh, Walkinstown Parade",53.323961923457794,-6.3351882219874796
2183,"Walkinstown, Walkinstown Road (Kilnamanagh Road)",53.321703980838,-6.330547608848259
2184,"Walkinstown, Walkinstown Rd, Drimnagh Rd",53.3229966132175,-6.32914609742308
2185,"Drimnagh, Drimnagh Road (Slievebloom Road)",53.3242691584508,-6.327595164886461
2186,"Drimnagh, Raphoe Road",53.3269332843419,-6.31253797965373
2187,"Crumlin, Iveagh Grounds",53.3280452768584,-6.30728442530442
2188,"Crumlin, Crumlin College",53.329016922829894,-6.30292198124809
2189,"Crumlin, Crumlin Shopping Centre",53.329695395882,-6.30007240820087
2190,"Dolphins Barn, Dolphin's Barn",53.3329461498259,-6.292315414198481
2191,"Islandbridge, Sarah Place",53.3480255718777,-6.3104432646711395
2192,"Islandbridge, U.C.D Boat Club",53.347245622936,-6.315671092884691
2193,"Islandbridge, Garda Boat Club",53.346384550387704,-6.32345529052176
2194,"Islandbridge, Sports Grounds",53.3461933372464,-6.32840430346692
2195,"Chapelizod, Chapelizod School",53.34674411380529,-6.337589992731969
2196,"Chapelizod, Kings Hall",53.347834625121095,-6.341678151466731
2197,Lucan Road (Chapelizod Hill Rd),53.3481655534101,-6.34674221487069
2198,"Chapelizod, Lucan Road (Belgrove Park)",53.3506251417954,-6.351063288605241
2199,"Ballyfermot, Old Lucan Road",53.351968295854704,-6.35590853399226
2200,"Chapelizod, Chapelizod By Pass Bridge",53.3502827503671,-6.35295415067497
2243,"Chapelizod, Lucan Road",53.351974382681504,-6.35569799515708
2244,"Chapelizod, Lucan Road (Belgrove Park)",53.3508843467058,-6.35160907436147
2245,"Chapelizod, Lucan Road (Laurence Brook)",53.349463204704506,-6.348284211289981
2246,"Chapelizod, Chapelizod Bridge",53.34831130883921,-6.34364235370793
2247,"Chapelizod, Chapelizod School",53.3467528589766,-6.33628291602209
2248,"Islandbridge, Sports Grounds",53.3463209318655,-6.327888637316019
2249,"Islandbridge, Neptune Rowing Club",53.346531704727106,-6.32113644944898
2250,"Islandbridge, Salmon Pool",53.3474385870512,-6.31533304000412
2251,"Islandbridge, Islandbridge Park Gate",53.3481320367099,-6.310979792308941
2255,"North Strand, Annesley Bridge",53.360230096372206,-6.23826189020208
2256,"East Wall, Portside Court",53.35834894122971,-6.235650152442419
2257,"East Wall, West Road",53.356382415651396,-6.23821028357833
2258,"East Wall, Saint Joseph's Church",53.3546537542947,-6.23801117708441
2259,"East Wall, Church Road",53.353538130695895,-6.23672019068215
2260,"East Wall, Church Road",53.35177850777579,-6.2350352598176695
2261,"East Wall, Church Court Estate",53.3526385466371,-6.23241589368512
2262,"East Wall, Merchants Road",53.3535229015383,-6.2265956020448305
2264,"Tolka Quay, Dublin Graving Docks",53.351135646297294,-6.2226087958312695
2265,"Tolka Quay, Alexandra Road (Branch Road)",53.351049776264,-6.21986339189806
2269,"Tolka Quay, Breakwater Road South",53.3503077646651,-6.20334062781966
2270,"Tolka Quay, Irish Ferries Terminal",53.345706120618,-6.195618655047599
2274,"Tolka Quay, Alexandra Road",53.3501863044238,-6.2036311442849
2278,"East Wall, Bargy Road",53.3543808286375,-6.2298950613210495
2279,"East Wall, Caledon Road",53.3529413710509,-6.23162219875026
2280,"East Wall, Church Road",53.3523117215819,-6.237056238673071
2281,"East Wall, Church Road",53.353664109754604,-6.23673001255049
2282,"East Wall, Saint Joseph's Church",53.3548411662372,-6.23852925147983
2283,"East Wall, Portside Court",53.3583262112741,-6.2359365524329995
2310,"Dublin City South, Werburgh Street",53.342445701798894,-6.26979842837403
2311,"Dublin City South, Kevin Street Garda Station",53.338285282662895,-6.27049246703832
2312,"Warrenmount, The Coombe",53.338878854575206,-6.27548423467162
2313,"The Coombe, Ardee Court",53.3387423330556,-6.27847818154428
2314,"The Coombe, Cork Street",53.338353683685,-6.28082149273868
2315,"The Coombe, Marion Villas",53.3375364314381,-6.285239284299459
2317,"Drimnagh, Crumlin Bowling Club",53.323418568712704,-6.31887655923768
2318,"Crumlin, Somerville Avenue",53.3219800054738,-6.318843045528211
2319,"Crumlin, Garda Station",53.3195097880904,-6.315127501487781
2320,"Walkinstown, Whitehall Road West (Kimmage Rd)",53.3158872230165,-6.3170112655487
2321,"Walkinstown, Crumlin Crossroads",53.313404842599894,-6.32008057357709
2322,"Walkinstown, Whitehall Road West",53.310237492123896,-6.32110538006182
2323,"Walkinstown, Millgate Drive",53.308107550648096,-6.32048365937229
2324,"Walkinstown, Whitehall Road West",53.3097868581281,-6.321018015221861
2325,"Walkinstown, Whitehall Road West (Limekiln Ln)",53.3121174975418,-6.3212116918170596
2326,"Walkinstown, Crumlin Crossroads",53.3137000175459,-6.31997893105515
2327,"Walkinstown, St. Agnes Road (Cromwellsfort Rd)",53.3168199827989,-6.316869496467191
2328,"Walkinstown, Saint Agnes Church",53.319587161839294,-6.315514725196099
2329,"Walkinstown, Saint Agnes Road",53.32084969817039,-6.3170861723169995
2330,"Walkinstown, Saint Agnes Road",53.3221480438959,-6.31928677990814
2331,"Walkinstown, Saint Mary's Road",53.324571774923896,-6.31779537774905
2332,"Walkinstown, Walkinstown Road (Kilnamanagh Road)",53.32106265301479,-6.3309629297521
2333,"Walkinstown, Walkinstown Road (Walkinstown Roundabout)",53.3178417645942,-6.33266465395949
2378,"Walkinstown, Walkinstown Road (Walkinstown Roundabout)",53.31853179024839,-6.33251767303031
2379,"The Coombe, Marion Villas",53.3378334357789,-6.2846417070798894
2380,"The Coombe, Cork Street",53.3385060739011,-6.2801696235630295
2382,"The Coombe, Brabazon Row",53.338857810983,-6.27838342591743
2383,"The Coombe, Saint Patrick's Cathedral",53.339458068261,-6.272652582553341
2385,"Dublin City South, Back Avenue",53.3423151191354,-6.27195136781827
2386,"Warrenmount, New Street South",53.337907367524096,-6.2723248169914605
2387,"Warrenmount, New Street South",53.336584424719106,-6.2728287910104905
2388,"Warrenmount, Clanbrassil Street",53.3344588046365,-6.27438623129611
2389,"Harolds Cross, Harold's Cross",53.324929029201705,-6.27919952128774
2390,"Harolds Cross, Mount Argus Park",53.3215286268265,-6.2839898347087
2391,"Kimmage, Mount Argus Church",53.320197513324295,-6.2864299556654295
2392,"Kimmage, Mount Argus Community Centre",53.3188913455654,-6.2912405478478
2393,"Kimmage, Lower Kimmage Road (Aideen Avenue)",53.315203611307794,-6.295455304632361
2394,"Terenure, Poddle Park",53.3132590569273,-6.29775401743367
2395,"Kimmage, Fortfield Road",53.3117355838446,-6.30059107181305
2396,Wainsfort Estate,53.308819067833795,-6.30217757945116
2397,"Terenure, College Drive",53.3065891639891,-6.30085550798026
2398,"Terenure, Fortfield Estate",53.3053439550566,-6.29988458197654
2409,"Terenure, Fortfield Estate",53.3053912217933,-6.30004776457778
2410,"Terenure, College Drive",53.3072258809457,-6.301385450000019
2411,Wainsfort Estate,53.3091732491352,-6.30243364694296
2412,"Kimmage, Lavarna Estate",53.3109352197486,-6.3018234623024
2413,"Kimmage, Kimmage Road West (Whitehall Road)",53.312865794885795,-6.30548384645275
2414,"Kimmage, Kimmage Road West",53.313980815653494,-6.310587594594059
2415,"Walkinstown, Royston Village",53.314966070825996,-6.31352043237578
2416,"Walkinstown, Cromwellsfort Road (Whitehall Road)",53.316399376262204,-6.31763651485731
2417,"Walkinstown, Cromwellsfort Road (Cherry Grove)",53.316635224112,-6.322895542274719
2418,"Walkinstown, Cromwellsfort Road (Bigger Road)",53.316969952115,-6.326889959308139
2419,"Walkinstown, Cromwell's Fort Road (Walkinstown Roundabout)",53.317079922615,-6.33024779704376
2431,"Walkinstown, Cromwell's Fort Road (Walkinstown Roundabout)",53.317203212876905,-6.330708281154849
2432,"Walkinstown, Cromwellsfort Road (Bigger Road)",53.31701346672111,-6.325507380031411
2433,"Walkinstown, Cromwellsfort Road (Cherry Grove)",53.316586230994204,-6.320691082543019
2434,"Crumlin, Kimmage Road West",53.3160265967778,-6.316060201415009
2435,"Crumlin, Westbrook",53.31426906236529,-6.3112666059906
2436,"Kimmage, Kimmage Road West",53.313705907017095,-6.30894752705153
2437,"Kimmage, Kimmage Road West (Whitehall Road)",53.3126888171566,-6.30251926023377
2438,"Kimmage, Lower Kimmage Road (Fortfield Road)",53.3124895224759,-6.29925542426284
2439,"Terenure, Poddle Park",53.3135458708946,-6.297697578709671
2440,"Kimmage, Lower Kimmage Road (Aideen Avenue)",53.316400874739706,-6.294326915289769
2441,"Kimmage, Mount Argus Community Centre",53.3190611622795,-6.291173721530759
2442,"Kimmage, Mount Argus Church",53.320452414384896,-6.28602946037107
2443,"Kimmage, Brookfield",53.3218921780869,-6.28364499642882
2444,"Harolds Cross, Lower Kimmage Road",53.32429773545521,-6.27967529321174
2448,"Crumlin, Healthcare Centre",53.31924636602,-6.304150300406031
2449,"Crumlin, Armagh Road",53.320985181203696,-6.30507207177197
2450,"Crumlin, Saint Agnes Primary School",53.320231099989606,-6.307668789242519
2451,"Crumlin, Saint Agnes Park",53.3192110956384,-6.314343721371981
2452,"Walkinstown, Saint Peter's Road (Walkinstown Roundabout)",53.3161898761675,-6.3321586972054895
2453,"Walkinstown, Saint Peter's Road (Saint James's Road)",53.3148278807863,-6.33053082340999
2462,St.James's Road (St.Peter's Road),53.3138231906995,-6.33002973232323
2463,"Walkinstown, Saint Peter's Road (Walkinstown Roundabout)",53.3153044515163,-6.33118762432682
2464,"Crumlin, Stannaway Avenue",53.3195160340252,-6.3130257940082
2465,"Crumlin, Armagh Road (Captain's Road)",53.3199884645803,-6.30893928264191
2466,"Crumlin, Scoil Colm",53.320654234514706,-6.3064511763571
2467,"Crumlin, Health Centre",53.319234183388794,-6.30392562805676
2471,"Kimmage, Larkfield Park",53.31878959048739,-6.2891581905344704
2472,"Harolds Cross, Clareville Road",53.3176779065494,-6.28560029534873
2473,"Harolds Cross, Clareville Road",53.31789900740271,-6.283475031440309
2474,"Harolds Cross, Clareville Road",53.3187042704261,-6.28197170964776
2475,"Harolds Cross, Kenilworth Park",53.318865886939,-6.28008893179158
2476,"Harolds Cross, Kenilworth Square North",53.3190374256211,-6.27765035669855
2477,"Rathmines, Kenilworth Square East",53.319861713919494,-6.2743598495266
2478,"Rathmines, Grosvenor Road",53.3205775910637,-6.269797669186279
2479,"Rathmines, Grosvenor Road",53.3202929682022,-6.270004325120929
2480,"Rathmines, Kenilworth Square East",53.3197374727229,-6.274469936999179
2481,"Harolds Cross, Kenilworth Square North",53.3187380715415,-6.27808269931127
2482,"Harolds Cross, Clareville Road",53.3189206310816,-6.28139262665718
2483,"Harolds Cross, Westfield Road",53.318418545377504,-6.28210326846722
2484,"Kimmage, Larkfield Park",53.3185468354216,-6.28915289128925
2485,"Kimmage, Sundrive Road",53.319791576540005,-6.291339673757481
2486,"Kimmage, Sundrive Road",53.32107539740371,-6.29311972472245
2487,"Kimmage, Stannaway Road",53.32181637696979,-6.29528179712861
